[{"name":"UCWeb","category_code":"software","founded_year":2004,"country_code":"CHN","city":"Guangzhou","latitude":23.1337544,"longitude":113.3853308,"number_of_employees":1700,"type":"BigCompany"},{"name":"UCWeb","category_code":"software","founded_year":2004,"country_code":"USA","city":"San Francisco","latitude":37.7814765,"longitude":-122.4013217,"number_of_employees":1700,"type":"BigCompany"},{"name":"Veeam Software","category_code":"software","founded_year":2006,"country_code":"USA","city":"Columbus","latitude":40.088052,"longitude":-83.088566,"number_of_employees":1500,"type":"BigCompany"},{"name":"HubSpot","category_code":"software","founded_year":2006,"country_code":"USA","city":"Cambridge","latitude":42.375392,"longitude":-71.118487,"number_of_employees":650,"type":"BigCompany"},{"name":"Kabam","category_code":"games_video","founded_year":2006,"country_code":"USA","city":"San Francisco","latitude":37.3944561,"longitude":-122.0785314,"number_of_employees":650,"type":"BigCompany"},{"name":"Bazaarvoice","category_code":"software","founded_year":2005,"country_code":"USA","city":"Austin","latitude":30.407545,"longitude":-97.717667,"number_of_employees":600,"type":"BigCompany"},{"name":"Veeva","category_code":"software","founded_year":2007,"country_code":"USA","city":"Pleasanton","latitude":37.69249,"longitude":-121.900722,"number_of_employees":510,"type":"BigCompany"},{"name":"Zendesk","category_code":"software","founded_year":2007,"country_code":"USA","city":"San Francisco","latitude":55.676294,"longitude":12.568116,"number_of_employees":400,"type":"BigCompany"},{"name":"Dropbox","category_code":"software","founded_year":2007,"country_code":"USA","city":"San Francisco","latitude":37.7909427,"longitude":-122.4084994,"number_of_employees":350,"type":"BigCompany"},{"name":"SPIL GAMES","category_code":"games_video","founded_year":2004,"country_code":"NLD","city":"Hilversum","latitude":52.220726,"longitude":5.198824,"number_of_employees":300,"type":"BigCompany"},{"name":"Evernote","category_code":"software","founded_year":2004,"country_code":"USA","city":"Redwood City","latitude":37.386774,"longitude":-121.987661,"number_of_employees":280,"type":"BigCompany"},{"name":"Marketo","category_code":"software","founded_year":2006,"country_code":"USA","city":"San Mateo","latitude":37.5583,"longitude":-122.301385,"number_of_employees":260,"type":"BigCompany"},{"name":"Ustream","category_code":"games_video","founded_year":2007,"country_code":"USA","city":"San Francisco","latitude":37.392936,"longitude":-122.07948,"number_of_employees":250,"type":"BigCompany"},{"name":"Kareo","category_code":"software","founded_year":2004,"country_code":"USA","city":"Irvine","latitude":33.676444,"longitude":-117.8587,"number_of_employees":250,"type":"BigCompany"},{"name":"Zuora","category_code":"software","founded_year":2007,"country_code":"USA","city":"Foster City","latitude":37.5596277,"longitude":-122.2709868,"number_of_employees":250,"type":"BigCompany"},{"name":"Tiempo Development","category_code":"software","founded_year":2006,"country_code":"USA","city":"Tempe","latitude":33.4298452,"longitude":-111.9387842,"number_of_employees":230,"type":"BigCompany"},{"name":"WSO2","category_code":"software","founded_year":2005,"country_code":"USA","city":"Palo Alto","latitude":37.390918,"longitude":-122.080843,"number_of_employees":228,"type":"BigCompany"},{"name":"WSO2","category_code":"software","founded_year":2005,"country_code":"GBR","city":"","latitude":50.8472228,"longitude":-0.919424,"number_of_employees":228,"type":"BigCompany"},{"name":"Nexenta Systems","category_code":"software","founded_year":2005,"country_code":"USA","city":"Santa Clara","latitude":37.444098,"longitude":-122.161287,"number_of_employees":200,"type":"BigCompany"},{"name":"Tekriti Software","category_code":"software","founded_year":2005,"country_code":"IND","city":"Gurgaon","latitude":28.435018,"longitude":77.003186,"number_of_employees":200,"type":"BigCompany"},{"name":"Rigel Networks","category_code":"software","founded_year":2004,"country_code":"USA","city":"Newport Beach","latitude":33.660955,"longitude":-117.867679,"number_of_employees":200,"type":"BigCompany"},{"name":"Unity Technologies","category_code":"games_video","founded_year":2004,"country_code":"USA","city":"San Francisco","latitude":55.6924605,"longitude":12.530107,"number_of_employees":200,"type":"BigCompany"},{"name":"Lyft","category_code":"software","founded_year":2007,"country_code":"USA","city":"San Francisco","latitude":37.7899027,"longitude":-122.4007846,"number_of_employees":180,"type":"BigCompany"},{"name":"Lyft","category_code":"software","founded_year":2007,"country_code":"USA","city":"San Francisco","latitude":37.7899027,"longitude":-122.4007846,"number_of_employees":180,"type":"BigCompany"},{"name":"Vocalocity","category_code":"software","founded_year":2007,"country_code":"USA","city":"Atlanta","latitude":33.7812614,"longitude":-84.3675617,"number_of_employees":175,"type":"BigCompany"},{"name":"WANdisco","category_code":"software","founded_year":2005,"country_code":"USA","city":"San Ramon","latitude":37.769205,"longitude":-121.966395,"number_of_employees":175,"type":"BigCompany"},{"name":"WANdisco","category_code":"software","founded_year":2005,"country_code":"GBR","city":"Sheffield","latitude":53.3800107,"longitude":-1.4629301,"number_of_employees":175,"type":"BigCompany"},{"name":"Quantum Secure","category_code":"software","founded_year":2004,"country_code":"USA","city":"San Jose","latitude":37.367838,"longitude":-121.915594,"number_of_employees":160,"type":"BigCompany"},{"name":"hulu","category_code":"games_video","founded_year":2007,"country_code":"USA","city":"Los Angeles","latitude":34.031276,"longitude":-118.456806,"number_of_employees":153,"type":"BigCompany"},{"name":"ngmoco","category_code":"games_video","founded_year":2008,"country_code":"USA","city":"San Francisco","latitude":37.7705096,"longitude":-122.4015807,"number_of_employees":150,"type":"BigCompany"},{"name":"i-Jet Media","category_code":"games_video","founded_year":2005,"country_code":"USA","city":"Sunnyvale","latitude":37.384239,"longitude":-122.012475,"number_of_employees":150,"type":"BigCompany"},{"name":"Z2Live","category_code":"games_video","founded_year":2009,"country_code":"USA","city":"Seattle","latitude":47.6103008,"longitude":-122.3399782,"number_of_employees":130,"type":"BigCompany"},{"name":"Velocify","category_code":"software","founded_year":2004,"country_code":"USA","city":"El Segundo","latitude":33.9192583,"longitude":-118.3952969,"number_of_employees":125,"type":"BigCompany"},{"name":"Modern Feed","category_code":"games_video","founded_year":2007,"country_code":"USA","city":"Los Angeles","latitude":34.085749,"longitude":-118.343791,"number_of_employees":123,"type":"BigCompany"},{"name":"Livestream","category_code":"games_video","founded_year":2007,"country_code":"USA","city":"New York","latitude":40.726155,"longitude":-73.995625,"number_of_employees":120,"type":"BigCompany"},{"name":"spigit","category_code":"software","founded_year":2006,"country_code":"USA","city":"Pleasanton","latitude":37.6637279,"longitude":-121.8731805,"number_of_employees":120,"type":"BigCompany"},{"name":"spigit","category_code":"software","founded_year":2006,"country_code":"USA","city":"Reston","latitude":38.9590083,"longitude":-77.3592746,"number_of_employees":120,"type":"BigCompany"},{"name":"spigit","category_code":"software","founded_year":2006,"country_code":"GBR","city":"London","latitude":51.5170385,"longitude":-0.1394759,"number_of_employees":120,"type":"BigCompany"},{"name":"uTest","category_code":"software","founded_year":2007,"country_code":"USA","city":"Framingham","latitude":42.288291,"longitude":-71.52679,"number_of_employees":120,"type":"BigCompany"},{"name":"Avature","category_code":"software","founded_year":2004,"country_code":"USA","city":"New York","latitude":40.706271,"longitude":-74.009242,"number_of_employees":120,"type":"BigCompany"},{"name":"Integrate","category_code":"software","founded_year":2010,"country_code":"USA","city":"Scottsdale","latitude":40.7481039,"longitude":-74.0353787,"number_of_employees":120,"type":"BigCompany"},{"name":"Integrate","category_code":"software","founded_year":2010,"country_code":"USA","city":"Scottsdale","latitude":40.7481039,"longitude":-74.0353787,"number_of_employees":120,"type":"BigCompany"},{"name":"Zynga","category_code":"games_video","founded_year":2007,"country_code":"USA","city":"San Francisco","latitude":37.765158,"longitude":-122.404234,"number_of_employees":115,"type":"BigCompany"},{"name":"Clarizen","category_code":"software","founded_year":2005,"country_code":"USA","city":"San Mateo","latitude":37.536044,"longitude":-122.328401,"number_of_employees":110,"type":"BigCompany"},{"name":"MapVersa","category_code":"software","founded_year":2008,"country_code":"USA","city":"San Diego","latitude":32.902266,"longitude":-117.20834,"number_of_employees":110,"type":"BigCompany"},{"name":"Prezi","category_code":"software","founded_year":2009,"country_code":"HUN","city":"Budapest","latitude":47.490346,"longitude":19.059078,"number_of_employees":110,"type":"BigCompany"},{"name":"Nalini Networks","category_code":"software","founded_year":2007,"country_code":"IND","city":"Bangalore","latitude":35.2675117,"longitude":139.1870746,"number_of_employees":110,"type":"BigCompany"},{"name":"Basho Technologies","category_code":"software","founded_year":2007,"country_code":"USA","city":"Cambridge","latitude":42.365867,"longitude":-71.092285,"number_of_employees":110,"type":"BigCompany"},{"name":"RockYou","category_code":"games_video","founded_year":2005,"country_code":"USA","city":"Redwood City","latitude":37.484619,"longitude":-122.206893,"number_of_employees":106,"type":"BigCompany"},{"name":"GitHub","category_code":"software","founded_year":2008,"country_code":"USA","city":"San Francisco","latitude":37.775196,"longitude":-122.419204,"number_of_employees":106,"type":"BigCompany"},{"name":"Pontis","category_code":"software","founded_year":2004,"country_code":"ISR","city":"Ra\u2019anana","latitude":32.1980455,"longitude":34.8824253,"number_of_employees":105,"type":"BigCompany"},{"name":"Pontis","category_code":"software","founded_year":2004,"country_code":"ARG","city":"Capital Federal","latitude":-34.5631882,"longitude":-58.4541925,"number_of_employees":105,"type":"BigCompany"},{"name":"SundaySky","category_code":"software","founded_year":2006,"country_code":"ISR","city":"Tel Aviv","latitude":32.1115098,"longitude":34.8388443,"number_of_employees":103,"type":"BigCompany"},{"name":"Jama Software","category_code":"software","founded_year":2007,"country_code":"USA","city":"Portland","latitude":45.5309644,"longitude":-122.68038,"number_of_employees":103,"type":"BigCompany"},{"name":"mig33","category_code":"games_video","founded_year":2005,"country_code":"SGP","city":"Singapore","latitude":37.580304,"longitude":-122.343679,"number_of_employees":100,"type":"BigCompany"},{"name":"Social Gaming Network","category_code":"games_video","founded_year":2011,"country_code":"USA","city":"Los Angeles","latitude":37.446823,"longitude":-122.161523,"number_of_employees":100,"type":"BigCompany"},{"name":"Social Gaming Network","category_code":"games_video","founded_year":2011,"country_code":"USA","city":"Beverly Hills","latitude":34.0698494,"longitude":-118.4054182,"number_of_employees":100,"type":"BigCompany"},{"name":"Cartedge","category_code":"software","founded_year":2006,"country_code":"USA","city":"Midvale","latitude":40.622919,"longitude":-111.900917,"number_of_employees":100,"type":"BigCompany"},{"name":"Making Sense","category_code":"software","founded_year":2006,"country_code":"USA","city":"San Antonio","latitude":29.516352,"longitude":-98.43676,"number_of_employees":100,"type":"BigCompany"},{"name":"Making Sense","category_code":"software","founded_year":2006,"country_code":"ARG","city":"Buenos Aires","latitude":-34.5892808,"longitude":-58.43297,"number_of_employees":100,"type":"BigCompany"},{"name":"Making Sense","category_code":"software","founded_year":2006,"country_code":"ARG","city":"Mar del Plata","latitude":-38.0060917,"longitude":-57.5582444,"number_of_employees":100,"type":"BigCompany"},{"name":"VBS TV","category_code":"games_video","founded_year":2006,"country_code":"USA","city":"Brooklyn","latitude":40.720764,"longitude":-73.957968,"number_of_employees":100,"type":"BigCompany"},{"name":"Open-Xchange","category_code":"software","founded_year":2005,"country_code":"USA","city":"Tarrytown","latitude":41.0662835,"longitude":-73.8625452,"number_of_employees":100,"type":"BigCompany"},{"name":"Open-Xchange","category_code":"software","founded_year":2005,"country_code":"DEU","city":"Olpe","latitude":51.029415,"longitude":7.850863,"number_of_employees":100,"type":"BigCompany"},{"name":"Open-Xchange","category_code":"software","founded_year":2005,"country_code":"DEU","city":"Nuremberg","latitude":49.4605351,"longitude":11.0823953,"number_of_employees":100,"type":"BigCompany"},{"name":"QualSoft Services","category_code":"software","founded_year":2004,"country_code":"USA","city":"Woodmere","latitude":40.632734,"longitude":-73.720916,"number_of_employees":100,"type":"BigCompany"},{"name":"NearSoft Europe","category_code":"software","founded_year":2006,"country_code":"CHE","city":"Zurich","latitude":47.3799427,"longitude":8.5436847,"number_of_employees":100,"type":"BigCompany"},{"name":"Openbravo","category_code":"software","founded_year":2006,"country_code":"ESP","city":"Barcelona","latitude":41.3935324,"longitude":2.1660785,"number_of_employees":100,"type":"BigCompany"},{"name":"EffectiveUI","category_code":"software","founded_year":2005,"country_code":"USA","city":"Denver","latitude":39.755152,"longitude":-104.990968,"number_of_employees":97,"type":"BigCompany"},{"name":"EffectiveUI","category_code":"software","founded_year":2005,"country_code":"USA","city":"Rochester","latitude":43.158821,"longitude":-77.585297,"number_of_employees":97,"type":"BigCompany"},{"name":"Zmags","category_code":"software","founded_year":2006,"country_code":"DNK","city":"Copenhagen","latitude":55.6839208,"longitude":12.571492,"number_of_employees":95,"type":"BigCompany"},{"name":"Zmags","category_code":"software","founded_year":2006,"country_code":"GBR","city":"London","latitude":51.5111369,"longitude":-0.1247662,"number_of_employees":95,"type":"BigCompany"},{"name":"Ifbyphone","category_code":"software","founded_year":2005,"country_code":"USA","city":"Chicago","latitude":42.040851,"longitude":-87.750643,"number_of_employees":90,"type":"BigCompany"},{"name":"Medio","category_code":"software","founded_year":2004,"country_code":"USA","city":"Seattle","latitude":47.611827,"longitude":-122.331308,"number_of_employees":90,"type":"BigCompany"},{"name":"Adlucent","category_code":"software","founded_year":2005,"country_code":"USA","city":"Austin","latitude":30.316226,"longitude":-97.71813,"number_of_employees":85,"type":"BigCompany"},{"name":"ReverbNation","category_code":"software","founded_year":2006,"country_code":"USA","city":"Durham","latitude":36.002893,"longitude":-78.904075,"number_of_employees":85,"type":"BigCompany"},{"name":"ReverbNation","category_code":"software","founded_year":2006,"country_code":"USA","city":"New York","latitude":40.718888,"longitude":-74.001169,"number_of_employees":85,"type":"BigCompany"},{"name":"Baynote","category_code":"software","founded_year":2004,"country_code":"USA","city":"San Jose","latitude":37.332271,"longitude":-122.006539,"number_of_employees":80,"type":"BigCompany"},{"name":"Navara","category_code":"software","founded_year":2012,"country_code":"NLD","city":"Maarssen","latitude":52.126616,"longitude":5.038078,"number_of_employees":80,"type":"BigCompany"},{"name":"PrestaShop","category_code":"software","founded_year":2007,"country_code":"FRA","city":"Levallois-Perret","latitude":48.8687217,"longitude":2.3593849,"number_of_employees":80,"type":"BigCompany"},{"name":"Navatar Group","category_code":"software","founded_year":2004,"country_code":"USA","city":"New York","latitude":40.733242,"longitude":-73.991877,"number_of_employees":80,"type":"BigCompany"},{"name":"Engagement Systems","category_code":"software","founded_year":2008,"country_code":"USA","city":"Kansas City","latitude":39.156427,"longitude":-94.483334,"number_of_employees":80,"type":"BigCompany"},{"name":"Boardwalktech","category_code":"software","founded_year":2004,"country_code":"USA","city":"Palo Alto","latitude":37.431941,"longitude":-122.103076,"number_of_employees":75,"type":"BigCompany"},{"name":"Clearleap","category_code":"software","founded_year":2007,"country_code":"USA","city":"Duluth","latitude":34.070164,"longitude":-84.058708,"number_of_employees":75,"type":"BigCompany"},{"name":"Synthesio","category_code":"software","founded_year":2006,"country_code":"USA","city":"New York","latitude":40.7431836,"longitude":-73.9935011,"number_of_employees":75,"type":"BigCompany"},{"name":"itEANz","category_code":"software","founded_year":2006,"country_code":"IND","city":"Bangalore","latitude":12.9332419,"longitude":77.6295577,"number_of_employees":75,"type":"BigCompany"},{"name":"[212]Media","category_code":"games_video","founded_year":2004,"country_code":"USA","city":"New York","latitude":40.743877,"longitude":-73.98618,"number_of_employees":75,"type":"BigCompany"},{"name":"Phreesia","category_code":"software","founded_year":2005,"country_code":"USA","city":"New York","latitude":40.739794,"longitude":-73.985878,"number_of_employees":70,"type":"BigCompany"},{"name":"YUPPTV","category_code":"games_video","founded_year":2008,"country_code":"USA","city":"Alpharetta","latitude":17.415429,"longitude":78.434422,"number_of_employees":70,"type":"BigCompany"},{"name":"Spotmau Corporation","category_code":"software","founded_year":2006,"country_code":"USA","city":"Humble","latitude":29.985528,"longitude":-95.3082988,"number_of_employees":70,"type":"BigCompany"},{"name":"Spotmau Corporation","category_code":"software","founded_year":2006,"country_code":"USA","city":"Humble","latitude":29.985528,"longitude":-95.3082988,"number_of_employees":70,"type":"BigCompany"},{"name":"Meteor Games","category_code":"games_video","founded_year":2007,"country_code":"USA","city":"Beverly Hills","latitude":34.09316,"longitude":-118.378335,"number_of_employees":70,"type":"BigCompany"},{"name":"ZeroTurnaround","category_code":"software","founded_year":2007,"country_code":"USA","city":"Tartu","latitude":58.3820542,"longitude":26.731054,"number_of_employees":70,"type":"BigCompany"},{"name":"Iken Solutions","category_code":"software","founded_year":2005,"country_code":"ARG","city":"Buenos Aires","latitude":-34.4942649,"longitude":-58.5511077,"number_of_employees":70,"type":"BigCompany"},{"name":"sevenload","category_code":"games_video","founded_year":2006,"country_code":"DEU","city":"Cologne","latitude":50.945289,"longitude":6.921546,"number_of_employees":67,"type":"BigCompany"},{"name":"Brainware","category_code":"software","founded_year":2006,"country_code":"USA","city":"Ashburn","latitude":39.0601,"longitude":-77.464018,"number_of_employees":65,"type":"BigCompany"},{"name":"StreamTheWorld","category_code":"games_video","founded_year":2005,"country_code":"CAN","city":"Montr\u00c3\u00a9al","latitude":45.4961227,"longitude":-73.5767499,"number_of_employees":65,"type":"BigCompany"},{"name":"StreamTheWorld","category_code":"games_video","founded_year":2005,"country_code":"CHE","city":"Lausanne","latitude":46.5206291,"longitude":6.6328274,"number_of_employees":65,"type":"BigCompany"},{"name":"FireScope","category_code":"software","founded_year":2006,"country_code":"USA","city":"Huntington Beach","latitude":33.664705,"longitude":-118.012553,"number_of_employees":65,"type":"BigCompany"},{"name":"FireScope","category_code":"software","founded_year":2006,"country_code":"USA","city":"Carrollton","latitude":33.0353,"longitude":-96.9274,"number_of_employees":65,"type":"BigCompany"},{"name":"FireScope","category_code":"software","founded_year":2006,"country_code":"AUS","city":"Sydney","latitude":-33.867139,"longitude":151.207114,"number_of_employees":65,"type":"BigCompany"},{"name":"FireScope","category_code":"software","founded_year":2006,"country_code":"GBR","city":"London","latitude":51.5001524,"longitude":-0.1262362,"number_of_employees":65,"type":"BigCompany"},{"name":"New Relic","category_code":"software","founded_year":2008,"country_code":"USA","city":"San Francisco","latitude":37.269175,"longitude":-119.306607,"number_of_employees":63,"type":"BigCompany"},{"name":"Halosys","category_code":"software","founded_year":2005,"country_code":"USA","city":"Santa Clara","latitude":37.3858901,"longitude":-121.9708095,"number_of_employees":62,"type":"BigCompany"},{"name":"Bunchball","category_code":"software","founded_year":2005,"country_code":"USA","city":"Redwood City","latitude":37.3208403,"longitude":-121.9479223,"number_of_employees":60,"type":"BigCompany"},{"name":"Perfect Market","category_code":"software","founded_year":2007,"country_code":"USA","city":"Pasadena","latitude":34.146436,"longitude":-118.153136,"number_of_employees":60,"type":"BigCompany"},{"name":"Railsware","category_code":"software","founded_year":2006,"country_code":"USA","city":"Beaverton","latitude":45.494668,"longitude":-122.827044,"number_of_employees":60,"type":"BigCompany"},{"name":"Collabor","category_code":"software","founded_year":2005,"country_code":"USA","city":"Marlborough","latitude":42.3389044,"longitude":-71.590103,"number_of_employees":60,"type":"BigCompany"},{"name":"Targetprocess","category_code":"software","founded_year":2006,"country_code":"USA","city":"Corning","latitude":42.979367,"longitude":-78.798947,"number_of_employees":60,"type":"BigCompany"},{"name":"AssureSign","category_code":"software","founded_year":2008,"country_code":"USA","city":"Altamonte Springs","latitude":28.672321,"longitude":-81.384939,"number_of_employees":60,"type":"BigCompany"},{"name":"Velneo","category_code":"software","founded_year":2005,"country_code":"ESP","city":"Vigo","latitude":42.1638716,"longitude":-8.6105703,"number_of_employees":60,"type":"BigCompany"},{"name":"Geewa","category_code":"games_video","founded_year":2005,"country_code":"CZE","city":"Prague 8","latitude":50.0938491,"longitude":14.4505336,"number_of_employees":60,"type":"BigCompany"},{"name":"Across Systems","category_code":"software","founded_year":2005,"country_code":"USA","city":"Glendale","latitude":34.1527593,"longitude":-118.2551,"number_of_employees":60,"type":"BigCompany"},{"name":"Across Systems","category_code":"software","founded_year":2005,"country_code":"USA","city":"Rochester","latitude":43.17742,"longitude":-77.7514,"number_of_employees":60,"type":"BigCompany"},{"name":"Across Systems","category_code":"software","founded_year":2005,"country_code":"DEU","city":"Karlsbad","latitude":48.8838843,"longitude":8.5093142,"number_of_employees":60,"type":"BigCompany"},{"name":"SCVNGR","category_code":"games_video","founded_year":2008,"country_code":"USA","city":"Boston","latitude":42.3406534,"longitude":-71.0680027,"number_of_employees":60,"type":"BigCompany"},{"name":"Adeptol","category_code":"software","founded_year":2007,"country_code":"USA","city":"Santa Clara","latitude":37.381341,"longitude":-121.977065,"number_of_employees":60,"type":"BigCompany"},{"name":"Curse","category_code":"games_video","founded_year":2006,"country_code":"USA","city":"San Francisco","latitude":37.787092,"longitude":-122.399972,"number_of_employees":58,"type":"BigCompany"},{"name":"Smart Online","category_code":"software","founded_year":2005,"country_code":"USA","city":"Durham","latitude":35.8772527,"longitude":-78.8392427,"number_of_employees":52,"type":"BigCompany"},{"name":"SparkBase","category_code":"software","founded_year":2004,"country_code":"USA","city":"Cleveland","latitude":41.513652,"longitude":-81.666101,"number_of_employees":51,"type":"BigCompany"},{"name":"OMGPOP","category_code":"games_video","founded_year":2006,"country_code":"USA","city":"New York","latitude":40.723384,"longitude":-74.001704,"number_of_employees":50,"type":"BigCompany"},{"name":"Crunchyroll","category_code":"games_video","founded_year":2008,"country_code":"USA","city":"San Francisco","latitude":37.781265,"longitude":-122.393229,"number_of_employees":50,"type":"BigCompany"},{"name":"Athena Archiver","category_code":"software","founded_year":2004,"country_code":"USA","city":"New York","latitude":40.747003,"longitude":-73.991562,"number_of_employees":50,"type":"BigCompany"},{"name":"Univa UD","category_code":"software","founded_year":2004,"country_code":"USA","city":"Lisle","latitude":41.808458,"longitude":-88.073008,"number_of_employees":50,"type":"BigCompany"},{"name":"Zigron","category_code":"software","founded_year":2006,"country_code":"USA","city":"Alexandria","latitude":37.796164,"longitude":-122.420903,"number_of_employees":50,"type":"BigCompany"},{"name":"MakeUseOf","category_code":"software","founded_year":2006,"country_code":"GBR","city":"Glasgow","latitude":55.862878,"longitude":-4.271165,"number_of_employees":50,"type":"BigCompany"},{"name":"Votigo","category_code":"software","founded_year":2006,"country_code":"USA","city":"Boulder","latitude":37.8919079,"longitude":-122.1192743,"number_of_employees":50,"type":"BigCompany"},{"name":"UNOS Development","category_code":"software","founded_year":2004,"country_code":"AUS","city":"NSW","latitude":-33.641732,"longitude":151.313553,"number_of_employees":50,"type":"BigCompany"},{"name":"Likewise Software","category_code":"software","founded_year":2004,"country_code":"USA","city":"Bellevue","latitude":47.582658,"longitude":-122.135282,"number_of_employees":50,"type":"BigCompany"},{"name":"Atigeo","category_code":"software","founded_year":2005,"country_code":"USA","city":"Bellevue","latitude":47.6174533,"longitude":-122.2016685,"number_of_employees":50,"type":"BigCompany"},{"name":"UBmatrix","category_code":"software","founded_year":2005,"country_code":"USA","city":"Redwood City","latitude":37.522281,"longitude":-122.258139,"number_of_employees":50,"type":"BigCompany"},{"name":"Likewise Software","category_code":"software","founded_year":2004,"country_code":"USA","city":"Bellevue","latitude":47.582658,"longitude":-122.135282,"number_of_employees":50,"type":"BigCompany"},{"name":"Atigeo","category_code":"software","founded_year":2005,"country_code":"USA","city":"Bellevue","latitude":47.6174533,"longitude":-122.2016685,"number_of_employees":50,"type":"BigCompany"},{"name":"UBmatrix","category_code":"software","founded_year":2005,"country_code":"USA","city":"Redwood City","latitude":37.522281,"longitude":-122.258139,"number_of_employees":50,"type":"BigCompany"},{"name":"Pardot","category_code":"software","founded_year":2007,"country_code":"USA","city":"Atlanta","latitude":33.84662,"longitude":-84.3565171,"number_of_employees":50,"type":"BigCompany"},{"name":"ViaCube","category_code":"software","founded_year":2006,"country_code":"USA","city":"Atlanta","latitude":33.754487,"longitude":-84.389663,"number_of_employees":50,"type":"BigCompany"},{"name":"Sysomos","category_code":"software","founded_year":2007,"country_code":"CAN","city":"Toronto","latitude":43.65508,"longitude":-79.3979364,"number_of_employees":50,"type":"BigCompany"},{"name":"Alachisoft","category_code":"software","founded_year":2004,"country_code":"USA","city":"San Ramon","latitude":37.770657,"longitude":-121.963321,"number_of_employees":50,"type":"BigCompany"},{"name":"Ginger Software","category_code":"software","founded_year":2007,"country_code":"USA","city":"Lexington","latitude":42.4352222,"longitude":-71.2344601,"number_of_employees":50,"type":"BigCompany"},{"name":"AppZero","category_code":"software","founded_year":2009,"country_code":"USA","city":"Andover","latitude":42.6751888,"longitude":-71.1469003,"number_of_employees":50,"type":"BigCompany"},{"name":"IGLOO Software","category_code":"software","founded_year":2008,"country_code":"CAN","city":"Kitchener","latitude":43.4496954,"longitude":-80.487328,"number_of_employees":50,"type":"BigCompany"},{"name":"Infobright","category_code":"software","founded_year":2005,"country_code":"CAN","city":"Toronto, Ontario","latitude":43.6490631,"longitude":-79.3749698,"number_of_employees":50,"type":"BigCompany"},{"name":"Infobright","category_code":"software","founded_year":2005,"country_code":"USA","city":"Chicago","latitude":42.377467,"longitude":-71.401307,"number_of_employees":50,"type":"BigCompany"},{"name":"Testplant","category_code":"software","founded_year":2008,"country_code":"GBR","city":"London","latitude":51.517356,"longitude":-0.1037742,"number_of_employees":50,"type":"BigCompany"},{"name":"Testplant","category_code":"software","founded_year":2008,"country_code":"USA","city":"Boulder","latitude":40.0230047,"longitude":-105.2532841,"number_of_employees":50,"type":"BigCompany"},{"name":"Clavis Technology","category_code":"software","founded_year":2007,"country_code":"USA","city":"Cambridge","latitude":42.3626626,"longitude":-71.084153,"number_of_employees":50,"type":"BigCompany"},{"name":"ALOT","category_code":"software","founded_year":2007,"country_code":"USA","city":"New York","latitude":40.72616,"longitude":-74.006023,"number_of_employees":50,"type":"BigCompany"},{"name":"38 Studios","category_code":"games_video","founded_year":2006,"country_code":"USA","city":"Maynard","latitude":42.431652,"longitude":-71.455658,"number_of_employees":49,"type":"BigCompany"},{"name":"SurveyGizmo","category_code":"software","founded_year":2006,"country_code":"USA","city":"Boulder","latitude":40.031015,"longitude":-105.227764,"number_of_employees":47,"type":"BigCompany"},{"name":"Blip","category_code":"games_video","founded_year":2005,"country_code":"USA","city":"Santa Monica","latitude":34.0272246,"longitude":-118.4682333,"number_of_employees":47,"type":"BigCompany"},{"name":"Aveksa","category_code":"software","founded_year":2004,"country_code":"USA","city":"Waltham","latitude":42.3988661,"longitude":-71.253781,"number_of_employees":46,"type":"BigCompany"},{"name":"Aveksa","category_code":"software","founded_year":2004,"country_code":"IND","city":"Bangalore","latitude":12.9346716,"longitude":77.6317612,"number_of_employees":46,"type":"BigCompany"},{"name":"Zattoo","category_code":"games_video","founded_year":2005,"country_code":"USA","city":"Ann Arbor","latitude":42.292649,"longitude":-83.734673,"number_of_employees":45,"type":"BigCompany"},{"name":"Boxee","category_code":"software","founded_year":2004,"country_code":"ISR","city":"Tel Aviv","latitude":32.0554,"longitude":34.7595,"number_of_employees":45,"type":"BigCompany"},{"name":"Boxee","category_code":"software","founded_year":2004,"country_code":"USA","city":"New York","latitude":40.745064,"longitude":-73.992637,"number_of_employees":45,"type":"BigCompany"},{"name":"Ratchet","category_code":"software","founded_year":2004,"country_code":"USA","city":"Minneapolis","latitude":44.989126,"longitude":-93.278663,"number_of_employees":45,"type":"BigCompany"},{"name":"Ratchet","category_code":"software","founded_year":2004,"country_code":"USA","city":"Chicago","latitude":41.890441,"longitude":-87.629377,"number_of_employees":45,"type":"BigCompany"},{"name":"Ratchet","category_code":"software","founded_year":2004,"country_code":"USA","city":"Los Angeles","latitude":33.810534,"longitude":-118.109206,"number_of_employees":45,"type":"BigCompany"},{"name":"Virtual Bridges","category_code":"software","founded_year":2006,"country_code":"USA","city":"Austin","latitude":30.27995,"longitude":-97.807274,"number_of_employees":45,"type":"BigCompany"},{"name":"Optify","category_code":"software","founded_year":2008,"country_code":"USA","city":"Seattle","latitude":47.603364,"longitude":-122.333359,"number_of_employees":45,"type":"Startup"},{"name":"Busca Corp","category_code":"games_video","founded_year":2007,"country_code":"USA","city":"La Jolla","latitude":32.841791,"longitude":-117.274602,"number_of_employees":45,"type":"BigCompany"},{"name":"Busca Corp","category_code":"games_video","founded_year":2007,"country_code":"MEX","city":"Tijuana, B.C.","latitude":32.5217442,"longitude":-117.0274947,"number_of_employees":45,"type":"BigCompany"},{"name":"Busca Corp","category_code":"games_video","founded_year":2007,"country_code":"MEX","city":"Mexico City","latitude":19.4164309,"longitude":-99.1651395,"number_of_employees":45,"type":"BigCompany"},{"name":"Tiny Speck","category_code":"games_video","founded_year":2009,"country_code":"CAN","city":"Vancouver","latitude":49.2824551,"longitude":-123.109217,"number_of_employees":45,"type":"Startup"},{"name":"Maas Global Solutions Corporation","category_code":"software","founded_year":2006,"country_code":"USA","city":"Las Vegas","latitude":36.1211955,"longitude":-115.2429972,"number_of_employees":43,"type":"BigCompany"},{"name":"Double Encore","category_code":"software","founded_year":2008,"country_code":"USA","city":"Denver","latitude":39.69263,"longitude":-104.955012,"number_of_employees":42,"type":"Startup"},{"name":"StarWind Software","category_code":"software","founded_year":2008,"country_code":"USA","city":"Burlington","latitude":42.487232,"longitude":-71.204372,"number_of_employees":42,"type":"Startup"},{"name":"SpaBooker","category_code":"software","founded_year":2007,"country_code":"USA","city":"New York","latitude":40.738567,"longitude":-73.987199,"number_of_employees":42,"type":"BigCompany"},{"name":"Kyte","category_code":"games_video","founded_year":2006,"country_code":"USA","city":"San Francisco","latitude":37.788482,"longitude":-122.409173,"number_of_employees":40,"type":"BigCompany"},{"name":"GoingOn","category_code":"software","founded_year":2008,"country_code":"USA","city":"San Francisco","latitude":37.782263,"longitude":-122.392142,"number_of_employees":40,"type":"Startup"},{"name":"eYeka","category_code":"software","founded_year":2006,"country_code":"FRA","city":"Paris","latitude":48.856667,"longitude":2.350987,"number_of_employees":40,"type":"BigCompany"},{"name":"H-care","category_code":"software","founded_year":2005,"country_code":"ITA","city":"Motebelluna","latitude":45.564237,"longitude":12.428383,"number_of_employees":40,"type":"BigCompany"},{"name":"Pivot","category_code":"software","founded_year":2004,"country_code":"USA","city":"Cambridge","latitude":42.364367,"longitude":-71.078978,"number_of_employees":40,"type":"BigCompany"},{"name":"Zenoss","category_code":"software","founded_year":2005,"country_code":"USA","city":"Annapolis","latitude":38.97639,"longitude":-76.503171,"number_of_employees":40,"type":"BigCompany"},{"name":"Zenoss","category_code":"software","founded_year":2005,"country_code":"USA","city":"Austin","latitude":30.379593,"longitude":-97.765313,"number_of_employees":40,"type":"BigCompany"},{"name":"CrestaTech","category_code":"software","founded_year":2005,"country_code":"USA","city":"Santa Clara","latitude":37.383368,"longitude":-121.980186,"number_of_employees":40,"type":"BigCompany"},{"name":"ITBrix","category_code":"software","founded_year":2005,"country_code":"USA","city":"Colorado Springs","latitude":38.919042,"longitude":-104.789289,"number_of_employees":40,"type":"BigCompany"},{"name":"ITBrix","category_code":"software","founded_year":2005,"country_code":"GBR","city":"St. Albans Herts","latitude":51.748219,"longitude":-0.341379,"number_of_employees":40,"type":"BigCompany"},{"name":"ITBrix","category_code":"software","founded_year":2005,"country_code":"BGR","city":"Plovdiv","latitude":42.133978,"longitude":24.714267,"number_of_employees":40,"type":"BigCompany"},{"name":"Sentrigo","category_code":"software","founded_year":2006,"country_code":"USA","city":"Santa Clara","latitude":37.55911,"longitude":-122.303493,"number_of_employees":40,"type":"BigCompany"},{"name":"Sentrigo","category_code":"software","founded_year":2006,"country_code":"USA","city":"Woburn","latitude":42.508719,"longitude":-71.144313,"number_of_employees":40,"type":"BigCompany"},{"name":"ControlCase","category_code":"software","founded_year":2004,"country_code":"USA","city":"McLean","latitude":38.911907,"longitude":-77.215776,"number_of_employees":40,"type":"BigCompany"},{"name":"Owlient","category_code":"games_video","founded_year":2005,"country_code":"FRA","city":"Paris","latitude":48.8308091,"longitude":2.3032201,"number_of_employees":40,"type":"BigCompany"},{"name":"illuminate Solutions","category_code":"software","founded_year":2005,"country_code":"USA","city":"Minneapolis","latitude":44.8559566,"longitude":-93.3555637,"number_of_employees":40,"type":"BigCompany"},{"name":"Servo Software","category_code":"software","founded_year":2008,"country_code":"USA","city":"San Mateo","latitude":37.552262,"longitude":-122.292146,"number_of_employees":40,"type":"Startup"},{"name":"Yoostar","category_code":"games_video","founded_year":2007,"country_code":"USA","city":"New York","latitude":40.756054,"longitude":-73.986951,"number_of_employees":40,"type":"BigCompany"},{"name":"Yoostar","category_code":"games_video","founded_year":2007,"country_code":"USA","city":"Los Angeles","latitude":34.052187,"longitude":-118.243425,"number_of_employees":40,"type":"BigCompany"},{"name":"The Resumator","category_code":"software","founded_year":2009,"country_code":"USA","city":"Pittsburgh","latitude":40.438423,"longitude":-80.001933,"number_of_employees":40,"type":"Startup"},{"name":"4Home","category_code":"software","founded_year":2006,"country_code":"USA","city":"Sunnyvale","latitude":37.385225,"longitude":-121.991912,"number_of_employees":36,"type":"BigCompany"},{"name":"Corebridge","category_code":"software","founded_year":2004,"country_code":"GBR","city":"London","latitude":51.5051974,"longitude":-0.1457395,"number_of_employees":36,"type":"BigCompany"},{"name":"Corebridge","category_code":"software","founded_year":2004,"country_code":"FRA","city":"75008 Paris","latitude":48.8732155,"longitude":2.3088701,"number_of_employees":36,"type":"BigCompany"},{"name":"Jinni","category_code":"games_video","founded_year":2008,"country_code":"ISR","city":"Tel Aviv","latitude":32.0554,"longitude":34.7595,"number_of_employees":35,"type":"Startup"},{"name":"Sometrics","category_code":"games_video","founded_year":2007,"country_code":"USA","city":"El Segundo","latitude":34.048857,"longitude":-118.251343,"number_of_employees":35,"type":"BigCompany"},{"name":"Openfilm","category_code":"games_video","founded_year":2007,"country_code":"USA","city":"Miami","latitude":25.887462,"longitude":-80.166155,"number_of_employees":35,"type":"BigCompany"},{"name":"Goober Networks","category_code":"software","founded_year":2005,"country_code":"USA","city":"Dover","latitude":39.096465,"longitude":-75.533034,"number_of_employees":35,"type":"BigCompany"},{"name":"Banashri Creatives","category_code":"software","founded_year":2006,"country_code":"IND","city":"Bangalore","latitude":12.956128,"longitude":77.592264,"number_of_employees":35,"type":"BigCompany"},{"name":"Visuamobile","category_code":"software","founded_year":2008,"country_code":"FRA","city":"Paris","latitude":48.8691369,"longitude":2.3602202,"number_of_employees":35,"type":"Startup"},{"name":"RankAbove","category_code":"software","founded_year":2007,"country_code":"ISR","city":"Tel Aviv","latitude":32.0695889,"longitude":34.7836788,"number_of_employees":35,"type":"BigCompany"},{"name":"RankAbove","category_code":"software","founded_year":2007,"country_code":"USA","city":"New York","latitude":40.748047,"longitude":-73.992402,"number_of_employees":35,"type":"BigCompany"},{"name":"expressor software","category_code":"software","founded_year":2007,"country_code":"USA","city":"Burlington","latitude":42.485102,"longitude":-71.211568,"number_of_employees":35,"type":"BigCompany"},{"name":"Rhxo Technology Group","category_code":"software","founded_year":2004,"country_code":"USA","city":"New York","latitude":40.762897,"longitude":-73.974714,"number_of_employees":35,"type":"BigCompany"},{"name":"Aria Networks","category_code":"software","founded_year":2005,"country_code":"GBR","city":"Chippenham","latitude":51.4515283,"longitude":-2.1334555,"number_of_employees":35,"type":"BigCompany"},{"name":"KnowledgeTree","category_code":"software","founded_year":2006,"country_code":"USA","city":"Raleigh","latitude":35.786975,"longitude":-78.647003,"number_of_employees":33,"type":"BigCompany"},{"name":"Vidoop","category_code":"software","founded_year":2006,"country_code":"USA","city":"Portland","latitude":45.5241278,"longitude":-122.675448,"number_of_employees":30,"type":"BigCompany"},{"name":"FlowPlay","category_code":"games_video","founded_year":2006,"country_code":"USA","city":"Seattle","latitude":47.6015315,"longitude":-122.335943,"number_of_employees":30,"type":"BigCompany"},{"name":"Scrabulous","category_code":"games_video","founded_year":2006,"country_code":"IND","city":"Kolkata","latitude":22.572646,"longitude":88.363895,"number_of_employees":30,"type":"BigCompany"},{"name":"2threads","category_code":"games_video","founded_year":2004,"country_code":"AUS","city":"sydney","latitude":-33.884685,"longitude":151.216427,"number_of_employees":30,"type":"BigCompany"},{"name":"Replay Solutions","category_code":"software","founded_year":2004,"country_code":"USA","city":"Redwood City","latitude":37.512318,"longitude":-122.200914,"number_of_employees":30,"type":"BigCompany"},{"name":"Cellufun","category_code":"games_video","founded_year":2005,"country_code":"USA","city":"New York","latitude":40.73993,"longitude":-73.9930489,"number_of_employees":30,"type":"BigCompany"},{"name":"eRepublik","category_code":"games_video","founded_year":2007,"country_code":"ESP","city":"Madrid","latitude":40.43094,"longitude":-3.6952896,"number_of_employees":30,"type":"BigCompany"},{"name":"Austhink Software","category_code":"software","founded_year":2004,"country_code":"AUS","city":"Melbourne, Victoria","latitude":-37.813603,"longitude":144.96616,"number_of_employees":30,"type":"BigCompany"},{"name":"Cotendo","category_code":"software","founded_year":2008,"country_code":"USA","city":"Sunnyvale","latitude":37.504764,"longitude":-122.259568,"number_of_employees":30,"type":"Startup"},{"name":"Keibi Technologies","category_code":"software","founded_year":2006,"country_code":"USA","city":"San Francisco","latitude":37.787646,"longitude":-122.402759,"number_of_employees":30,"type":"BigCompany"},{"name":"JumpForward","category_code":"software","founded_year":2010,"country_code":"USA","city":"Chicago","latitude":41.857204,"longitude":-87.623923,"number_of_employees":30,"type":"Startup"},{"name":"DocVerify","category_code":"software","founded_year":2006,"country_code":"USA","city":"Irvine","latitude":33.661515,"longitude":-117.821661,"number_of_employees":30,"type":"BigCompany"},{"name":"BetterLabs","category_code":"software","founded_year":2006,"country_code":"USA","city":"San Jose","latitude":37.324803,"longitude":-121.771853,"number_of_employees":30,"type":"BigCompany"},{"name":"Samfind","category_code":"software","founded_year":2008,"country_code":"USA","city":"Los Angeles","latitude":34.052107,"longitude":-118.385271,"number_of_employees":30,"type":"Startup"},{"name":"LiveHive Systems","category_code":"software","founded_year":2005,"country_code":"CAN","city":"Waterloo","latitude":43.474686,"longitude":-80.521246,"number_of_employees":30,"type":"BigCompany"},{"name":"SocialTwist","category_code":"software","founded_year":2008,"country_code":"USA","city":"Mountain View","latitude":37.355275,"longitude":-122.014791,"number_of_employees":30,"type":"Startup"},{"name":"ApogeeInvent","category_code":"software","founded_year":2004,"country_code":"USA","city":"American Falls","latitude":43.825874,"longitude":-111.780958,"number_of_employees":30,"type":"BigCompany"},{"name":"Remal IT","category_code":"software","founded_year":2005,"country_code":"SAU","city":"Dammam","latitude":26.272541,"longitude":50.21028,"number_of_employees":30,"type":"BigCompany"},{"name":"Brickfish","category_code":"software","founded_year":2005,"country_code":"USA","city":"Chicago","latitude":41.8851542,"longitude":-87.6223183,"number_of_employees":30,"type":"BigCompany"},{"name":"Unison Technologies","category_code":"software","founded_year":2011,"country_code":"USA","city":"New York","latitude":40.7645772,"longitude":-73.9799007,"number_of_employees":30,"type":"Startup"},{"name":"iScripts","category_code":"software","founded_year":2006,"country_code":"USA","city":"Deerfield","latitude":42.1652513,"longitude":-87.9215314,"number_of_employees":30,"type":"BigCompany"},{"name":"MAG STUDIOS","category_code":"software","founded_year":2004,"country_code":"IND","city":"Delhi","latitude":28.635308,"longitude":77.22496,"number_of_employees":30,"type":"BigCompany"},{"name":"CoSoSys","category_code":"software","founded_year":2004,"country_code":"USA","city":"Eagle","latitude":37.4130691,"longitude":-121.9429714,"number_of_employees":30,"type":"BigCompany"},{"name":"CoSoSys","category_code":"software","founded_year":2004,"country_code":"DEU","city":"Friedrichshafen","latitude":47.6531483,"longitude":9.4901233,"number_of_employees":30,"type":"BigCompany"},{"name":"The Escapist","category_code":"games_video","founded_year":2005,"country_code":"USA","city":"Durham","latitude":35.911733,"longitude":-78.900103,"number_of_employees":30,"type":"BigCompany"},{"name":"Trackset","category_code":"software","founded_year":2007,"country_code":"ITA","city":"Pisa","latitude":43.7161354,"longitude":10.3965843,"number_of_employees":30,"type":"BigCompany"},{"name":"Trackset","category_code":"software","founded_year":2007,"country_code":"ITA","city":"Milano","latitude":45.4636889,"longitude":9.1881408,"number_of_employees":30,"type":"BigCompany"},{"name":"FacebookLicious!","category_code":"games_video","founded_year":2007,"country_code":"USA","city":"Bear","latitude":39.612223,"longitude":-75.696706,"number_of_employees":30,"type":"BigCompany"},{"name":"Mytopia","category_code":"games_video","founded_year":2007,"country_code":"USA","city":"Palo Alto","latitude":34.007967,"longitude":-118.489681,"number_of_employees":29,"type":"BigCompany"},{"name":"AdJuggler","category_code":"software","founded_year":2008,"country_code":"USA","city":"Alexandria","latitude":38.804559,"longitude":-77.164776,"number_of_employees":27,"type":"Startup"},{"name":"Zapproved","category_code":"software","founded_year":2008,"country_code":"USA","city":"Portland","latitude":45.5251,"longitude":-122.8097,"number_of_employees":27,"type":"Startup"},{"name":"Yaika","category_code":"games_video","founded_year":2008,"country_code":"EST","city":"Tallinn","latitude":59.437214,"longitude":24.768664,"number_of_employees":26,"type":"Startup"},{"name":"Preview Networks","category_code":"games_video","founded_year":2004,"country_code":"DNK","city":"Copenhagen","latitude":55.6659813,"longitude":12.5800751,"number_of_employees":26,"type":"BigCompany"},{"name":"ASPgems","category_code":"software","founded_year":2006,"country_code":"ESP","city":"Madrid","latitude":40.4165967,"longitude":-3.6992667,"number_of_employees":26,"type":"BigCompany"},{"name":"Aniboom","category_code":"games_video","founded_year":2006,"country_code":"ISR","city":null,"latitude":31.046051,"longitude":34.851612,"number_of_employees":25,"type":"BigCompany"},{"name":"MocoSpace","category_code":"games_video","founded_year":2005,"country_code":"USA","city":"Boston","latitude":42.350274,"longitude":-71.058768,"number_of_employees":25,"type":"BigCompany"},{"name":"Fliqz","category_code":"games_video","founded_year":2005,"country_code":"USA","city":"Emeryville","latitude":37.848641,"longitude":-122.289498,"number_of_employees":25,"type":"BigCompany"},{"name":"OpenDrive","category_code":"software","founded_year":2008,"country_code":"USA","city":"Palo Alto","latitude":37.794043,"longitude":-122.39736,"number_of_employees":25,"type":"Startup"},{"name":"O3Spaces","category_code":"software","founded_year":2005,"country_code":"NLD","city":"Gouda","latitude":52.0259843,"longitude":4.6805473,"number_of_employees":25,"type":"BigCompany"},{"name":"Rollstream","category_code":"software","founded_year":2005,"country_code":"USA","city":"McLean","latitude":38.872668,"longitude":-77.367981,"number_of_employees":25,"type":"BigCompany"},{"name":"Analytix On Demand","category_code":"software","founded_year":2008,"country_code":"USA","city":"Irvine","latitude":33.67983,"longitude":-117.839046,"number_of_employees":25,"type":"Startup"},{"name":"BASH Gaming","category_code":"games_video","founded_year":2010,"country_code":"USA","city":"Fremont","latitude":37.5561712,"longitude":-122.0780632,"number_of_employees":25,"type":"Startup"},{"name":"BASH Gaming","category_code":"games_video","founded_year":2010,"country_code":"IND","city":"Bangalore","latitude":12.971606,"longitude":77.594376,"number_of_employees":25,"type":"Startup"},{"name":"ThirdFrameStudios","category_code":"software","founded_year":2005,"country_code":"SVN","city":"Kranj","latitude":46.2272708,"longitude":14.3611417,"number_of_employees":25,"type":"BigCompany"},{"name":"Spiral16","category_code":"software","founded_year":2007,"country_code":"USA","city":"Overland Park","latitude":38.929582,"longitude":-94.660375,"number_of_employees":25,"type":"BigCompany"},{"name":"Saavn","category_code":"games_video","founded_year":2006,"country_code":"USA","city":"New York","latitude":40.743877,"longitude":-73.98618,"number_of_employees":25,"type":"BigCompany"},{"name":"Pando Networks","category_code":"games_video","founded_year":2004,"country_code":"USA","city":"New York","latitude":40.722655,"longitude":-73.99873,"number_of_employees":23,"type":"BigCompany"},{"name":"semanticlabs","category_code":"software","founded_year":2005,"country_code":"AUT","city":"Vienna","latitude":48.202758,"longitude":16.354637,"number_of_employees":23,"type":"BigCompany"},{"name":"Stratogon Entertainment","category_code":"software","founded_year":2006,"country_code":"USA","city":"Plantation","latitude":26.1026788,"longitude":-80.2501145,"number_of_employees":23,"type":"BigCompany"},{"name":"UserVoice","category_code":"software","founded_year":2008,"country_code":"USA","city":"San Francisco","latitude":36.9751032,"longitude":-122.0253784,"number_of_employees":22,"type":"Startup"},{"name":"Serious Business","category_code":"games_video","founded_year":2008,"country_code":"USA","city":"San Francisco","latitude":37.7893215,"longitude":-122.4013624,"number_of_employees":22,"type":"Startup"},{"name":"Tweegee","category_code":"games_video","founded_year":2008,"country_code":"ISR","city":"Ramat Gan","latitude":32.037363,"longitude":34.8003705,"number_of_employees":22,"type":"Startup"},{"name":"Tweegee","category_code":"games_video","founded_year":2008,"country_code":"ISR","city":"Ramat Gan","latitude":32.037363,"longitude":34.8003705,"number_of_employees":22,"type":"Startup"},{"name":"Viridity Software","category_code":"software","founded_year":2008,"country_code":"USA","city":"Burlington","latitude":42.4871509,"longitude":-71.1986329,"number_of_employees":22,"type":"Startup"},{"name":"Personal Estate Manager","category_code":"software","founded_year":2004,"country_code":"USA","city":"Shelby Township","latitude":42.6031277,"longitude":-83.0294402,"number_of_employees":22,"type":"BigCompany"},{"name":"Vuze","category_code":"games_video","founded_year":2005,"country_code":"USA","city":"San Mateo","latitude":37.4858654,"longitude":-122.2262606,"number_of_employees":20,"type":"BigCompany"},{"name":"BuddyTV","category_code":"games_video","founded_year":2005,"country_code":"USA","city":"Seattle","latitude":47.61968,"longitude":-122.356756,"number_of_employees":20,"type":"BigCompany"},{"name":"Kongregate","category_code":"games_video","founded_year":2006,"country_code":"USA","city":"San Francisco","latitude":37.786942,"longitude":-122.401245,"number_of_employees":20,"type":"BigCompany"},{"name":"Movaya","category_code":"software","founded_year":2006,"country_code":"USA","city":"Seattle","latitude":47.66274,"longitude":-122.300863,"number_of_employees":20,"type":"BigCompany"},{"name":"HRSnap! Corporation","category_code":"software","founded_year":2007,"country_code":"USA","city":"Las Vegas","latitude":36.180757,"longitude":-115.242203,"number_of_employees":20,"type":"BigCompany"},{"name":"Protecode","category_code":"software","founded_year":2007,"country_code":"CAN","city":"Ottawa","latitude":45.352255,"longitude":-75.834151,"number_of_employees":20,"type":"BigCompany"},{"name":"MUBI","category_code":"games_video","founded_year":2007,"country_code":"USA","city":"Palo Alto","latitude":37.44236,"longitude":-122.161025,"number_of_employees":20,"type":"BigCompany"},{"name":"PhaseWare","category_code":"software","founded_year":2004,"country_code":"USA","city":"McKinney","latitude":33.17514,"longitude":-96.662494,"number_of_employees":20,"type":"BigCompany"},{"name":"Friend2Friend","category_code":"software","founded_year":2007,"country_code":"USA","city":"Palo Alto","latitude":37.445739,"longitude":-122.161284,"number_of_employees":20,"type":"BigCompany"},{"name":"BrandDoozie","category_code":"software","founded_year":2006,"country_code":"USA","city":"Irvine","latitude":33.647105,"longitude":-117.73424,"number_of_employees":20,"type":"BigCompany"},{"name":"Manam Infotech","category_code":"software","founded_year":2008,"country_code":"IND","city":"Bangalore","latitude":12.975531,"longitude":77.653739,"number_of_employees":20,"type":"Startup"},{"name":"CohesiveFT","category_code":"software","founded_year":2006,"country_code":"USA","city":"Chicago","latitude":41.882401,"longitude":-87.637816,"number_of_employees":20,"type":"BigCompany"},{"name":"BitRock","category_code":"software","founded_year":2009,"country_code":"USA","city":"Alameda","latitude":37.78424,"longitude":-122.274771,"number_of_employees":20,"type":"Startup"},{"name":"EventElephant","category_code":"software","founded_year":2008,"country_code":"GBR","city":"Richmond","latitude":53.335194,"longitude":-6.252923,"number_of_employees":20,"type":"Startup"},{"name":"CakeMail","category_code":"software","founded_year":2007,"country_code":"CAN","city":"Montreal, QC","latitude":45.475206,"longitude":-73.580782,"number_of_employees":20,"type":"BigCompany"},{"name":"Pongr","category_code":"software","founded_year":2008,"country_code":"USA","city":"Boston","latitude":41.587539,"longitude":-93.625499,"number_of_employees":20,"type":"Startup"},{"name":"Pongr","category_code":"software","founded_year":2008,"country_code":"USA","city":"Des Moines","latitude":42.3513279,"longitude":-71.0766717,"number_of_employees":20,"type":"Startup"},{"name":"Sonar6","category_code":"software","founded_year":2004,"country_code":"NZL","city":"Auckland","latitude":-36.8527748,"longitude":174.756168,"number_of_employees":20,"type":"BigCompany"},{"name":"OrcaTec","category_code":"software","founded_year":2006,"country_code":"USA","city":"Atlanta","latitude":45.538651,"longitude":-75.815542,"number_of_employees":20,"type":"BigCompany"},{"name":"CaptainU","category_code":"software","founded_year":2007,"country_code":"USA","city":"San Francisco","latitude":41.7894201,"longitude":-87.5962319,"number_of_employees":20,"type":"BigCompany"},{"name":"Enough Software","category_code":"software","founded_year":2005,"country_code":"DEU","city":"Bremen","latitude":53.0785928,"longitude":8.8088823,"number_of_employees":20,"type":"BigCompany"},{"name":"ascentify","category_code":"software","founded_year":2004,"country_code":"CAN","city":"Ottawa","latitude":45.3479463,"longitude":-75.9200142,"number_of_employees":20,"type":"BigCompany"},{"name":"VODECLIC","category_code":"software","founded_year":2007,"country_code":"FRA","city":"Levallois-Perret","latitude":48.891986,"longitude":2.319287,"number_of_employees":20,"type":"BigCompany"},{"name":"Hook Mobile","category_code":"software","founded_year":2006,"country_code":"USA","city":"Vienna","latitude":38.917237,"longitude":-77.232657,"number_of_employees":20,"type":"BigCompany"},{"name":"BrowserObject","category_code":"software","founded_year":2007,"country_code":"USA","city":"Brandenton","latitude":27.445135,"longitude":-82.485057,"number_of_employees":20,"type":"BigCompany"},{"name":"RJMetrics","category_code":"software","founded_year":2008,"country_code":"USA","city":"Philadelphia","latitude":39.9443552,"longitude":-75.1257381,"number_of_employees":20,"type":"Startup"},{"name":"Appulate","category_code":"software","founded_year":2005,"country_code":"USA","city":"Agoura Hills","latitude":34.142874,"longitude":-118.7445257,"number_of_employees":20,"type":"BigCompany"},{"name":"SysTools Software","category_code":"software","founded_year":2006,"country_code":"USA","city":"Eden Prairie","latitude":44.864782,"longitude":-93.401984,"number_of_employees":20,"type":"BigCompany"},{"name":"Panfu","category_code":"games_video","founded_year":2007,"country_code":"DEU","city":"Berlin","latitude":52.5283111,"longitude":13.4120986,"number_of_employees":20,"type":"BigCompany"},{"name":"GameChanger Media","category_code":"software","founded_year":2009,"country_code":"USA","city":"New York","latitude":40.7078343,"longitude":-74.0136605,"number_of_employees":20,"type":"Startup"},{"name":"HariOmTechnologies","category_code":"software","founded_year":2008,"country_code":"IND","city":"Bhopal","latitude":23.2771102,"longitude":77.4589032,"number_of_employees":20,"type":"Startup"},{"name":"iPOTT Softech India Private Limited","category_code":"software","founded_year":2005,"country_code":"IND","city":"Bangalore","latitude":12.9959332,"longitude":77.6102811,"number_of_employees":20,"type":"BigCompany"},{"name":"Diamantea","category_code":"software","founded_year":2004,"country_code":"ITA","city":"","latitude":37.5186215,"longitude":15.0916839,"number_of_employees":20,"type":"BigCompany"},{"name":"Tiverias Apps","category_code":"software","founded_year":2009,"country_code":"USA","city":"Cambridge","latitude":42.3672873,"longitude":-71.0814466,"number_of_employees":20,"type":"Startup"},{"name":"Siri","category_code":"software","founded_year":2007,"country_code":"USA","city":"San Jose","latitude":37.320052,"longitude":-121.877636,"number_of_employees":19,"type":"BigCompany"},{"name":"espor","category_code":"software","founded_year":2008,"country_code":"USA","city":"Denver","latitude":39.3926188,"longitude":-104.8943767,"number_of_employees":19,"type":"Startup"},{"name":"Tsheets","category_code":"software","founded_year":2006,"country_code":"USA","city":"Eagle","latitude":43.6124,"longitude":-116.3908,"number_of_employees":18,"type":"BigCompany"},{"name":"Skalfa","category_code":"software","founded_year":2004,"country_code":"USA","city":"South Bend","latitude":41.601645,"longitude":-86.27604,"number_of_employees":18,"type":"BigCompany"},{"name":"Titan Gaming","category_code":"games_video","founded_year":2010,"country_code":"USA","city":"Santa Monica","latitude":53.544711,"longitude":-113.515769,"number_of_employees":18,"type":"Startup"},{"name":"Filemobile","category_code":"software","founded_year":2006,"country_code":"CAN","city":"Toronto","latitude":43.63559,"longitude":-79.424625,"number_of_employees":18,"type":"BigCompany"},{"name":"Artefact","category_code":"software","founded_year":2006,"country_code":"USA","city":"Seattle","latitude":47.611718,"longitude":-122.345874,"number_of_employees":18,"type":"BigCompany"},{"name":"Tivix","category_code":"software","founded_year":2008,"country_code":"USA","city":"San Francisco","latitude":37.792303,"longitude":-122.423132,"number_of_employees":18,"type":"Startup"},{"name":"ScanDigital","category_code":"games_video","founded_year":2007,"country_code":"USA","city":"Torrance","latitude":33.918151,"longitude":-118.41747,"number_of_employees":17,"type":"BigCompany"},{"name":"CareerTours","category_code":"games_video","founded_year":2006,"country_code":"USA","city":"Scottsdale","latitude":33.465063,"longitude":-111.926112,"number_of_employees":17,"type":"BigCompany"},{"name":"Planzone","category_code":"software","founded_year":2008,"country_code":"FRA","city":"cedex","latitude":49.5332371,"longitude":2.1346593,"number_of_employees":17,"type":"Startup"},{"name":"Krimson","category_code":"software","founded_year":2007,"country_code":"BEL","city":"Antwerp","latitude":51.2013419,"longitude":4.4292519,"number_of_employees":17,"type":"BigCompany"},{"name":"iPharro Media","category_code":"software","founded_year":2007,"country_code":"DEU","city":"Darmstadt","latitude":49.8740096,"longitude":8.6605881,"number_of_employees":17,"type":"BigCompany"},{"name":"iPharro Media","category_code":"software","founded_year":2007,"country_code":"USA","city":"New York","latitude":40.7438356,"longitude":-73.9890149,"number_of_employees":17,"type":"BigCompany"},{"name":"Bumblehood","category_code":"software","founded_year":2006,"country_code":"DEU","city":"Munich","latitude":48.1319712,"longitude":11.5696891,"number_of_employees":17,"type":"BigCompany"},{"name":"Clipta","category_code":"games_video","founded_year":2008,"country_code":"USA","city":"Sunnyvale","latitude":37.3793718,"longitude":-122.0124404,"number_of_employees":16,"type":"Startup"},{"name":"FMYI","category_code":"software","founded_year":2004,"country_code":"USA","city":"Portland","latitude":45.5349042,"longitude":-122.6687628,"number_of_employees":16,"type":"BigCompany"},{"name":"FMYI","category_code":"software","founded_year":2004,"country_code":"USA","city":"Orlando","latitude":28.553154,"longitude":-81.364438,"number_of_employees":16,"type":"BigCompany"},{"name":"FMYI","category_code":"software","founded_year":2004,"country_code":"USA","city":"Portland","latitude":45.5349042,"longitude":-122.6687628,"number_of_employees":16,"type":"BigCompany"},{"name":"FMYI","category_code":"software","founded_year":2004,"country_code":"USA","city":"Orlando","latitude":28.553154,"longitude":-81.364438,"number_of_employees":16,"type":"BigCompany"},{"name":"PayCommerce","category_code":"software","founded_year":2004,"country_code":"USA","city":"Piscataway","latitude":40.55007,"longitude":-74.456689,"number_of_employees":16,"type":"BigCompany"},{"name":"Spoonfed","category_code":"games_video","founded_year":2006,"country_code":"GBR","city":"London","latitude":51.7577453,"longitude":-1.2186724,"number_of_employees":16,"type":"BigCompany"},{"name":"AdaptiveBlue","category_code":"games_video","founded_year":2007,"country_code":"USA","city":"NYC","latitude":40.801358,"longitude":-74.3372,"number_of_employees":15,"type":"BigCompany"},{"name":"Veodia","category_code":"games_video","founded_year":2006,"country_code":"USA","city":"San Mateo","latitude":37.553743,"longitude":-122.300246,"number_of_employees":15,"type":"BigCompany"},{"name":"Roost","category_code":"software","founded_year":2007,"country_code":"USA","city":"San Francisco","latitude":37.7891288,"longitude":-122.4020276,"number_of_employees":15,"type":"BigCompany"},{"name":"Mirror42","category_code":"software","founded_year":2004,"country_code":"NLD","city":"Amsterdam","latitude":52.36702,"longitude":4.896468,"number_of_employees":15,"type":"BigCompany"},{"name":"Medioh!","category_code":"games_video","founded_year":2005,"country_code":"USA","city":"Boulder","latitude":40.016582,"longitude":-105.253601,"number_of_employees":15,"type":"BigCompany"},{"name":"Porvus","category_code":"software","founded_year":2006,"country_code":"USA","city":"Sunnyvale","latitude":37.372509,"longitude":-122.038205,"number_of_employees":15,"type":"BigCompany"},{"name":"LyricFind","category_code":"games_video","founded_year":2005,"country_code":"CAN","city":"Toronto","latitude":43.7123092,"longitude":-79.3995384,"number_of_employees":15,"type":"BigCompany"},{"name":"Flimp Media","category_code":"software","founded_year":2006,"country_code":"USA","city":"Hopkinton","latitude":42.228946,"longitude":-71.51888,"number_of_employees":15,"type":"BigCompany"},{"name":"Transinsight","category_code":"software","founded_year":2005,"country_code":"DEU","city":"Dresden","latitude":51.055992,"longitude":13.776354,"number_of_employees":15,"type":"BigCompany"},{"name":"Comindwork","category_code":"software","founded_year":2007,"country_code":"UKR","city":"Kiev","latitude":50.474832,"longitude":30.680651,"number_of_employees":15,"type":"BigCompany"},{"name":"Endavo Media and Communications","category_code":"games_video","founded_year":2004,"country_code":"USA","city":"Atlanta","latitude":33.8317964,"longitude":-84.3391231,"number_of_employees":15,"type":"BigCompany"},{"name":"GotGame","category_code":"games_video","founded_year":2006,"country_code":"USA","city":"San Francisco","latitude":37.77772,"longitude":-122.395785,"number_of_employees":15,"type":"BigCompany"},{"name":"Aghreni Technologies","category_code":"software","founded_year":2008,"country_code":"IND","city":"Bangalore","latitude":12.9561278,"longitude":77.5922642,"number_of_employees":15,"type":"Startup"},{"name":"Aghreni Technologies","category_code":"software","founded_year":2008,"country_code":"USA","city":"New York","latitude":40.744549,"longitude":-73.988071,"number_of_employees":15,"type":"Startup"},{"name":"Aligned Global","category_code":"software","founded_year":2008,"country_code":"USA","city":"Miami","latitude":25.769174,"longitude":-80.331681,"number_of_employees":15,"type":"Startup"},{"name":"BAK2u","category_code":"software","founded_year":2005,"country_code":"SGP","city":"Singapore","latitude":1.297079,"longitude":103.8557638,"number_of_employees":15,"type":"BigCompany"},{"name":"Paden Noble Consulting","category_code":"software","founded_year":2006,"country_code":"USA","city":"Newark","latitude":40.742416,"longitude":-74.182118,"number_of_employees":15,"type":"BigCompany"},{"name":"Drum Channel","category_code":"games_video","founded_year":2007,"country_code":"USA","city":"Oxnard","latitude":34.210099,"longitude":-119.12636,"number_of_employees":15,"type":"BigCompany"},{"name":"CodeLean","category_code":"software","founded_year":2008,"country_code":"DNK","city":"Bagsvaerd","latitude":55.7680455,"longitude":12.437582,"number_of_employees":15,"type":"Startup"},{"name":"Transcensus","category_code":"software","founded_year":2004,"country_code":"USA","city":"Orem","latitude":40.311946,"longitude":-111.6850207,"number_of_employees":15,"type":"BigCompany"},{"name":"Monarch Teaching Technologies","category_code":"software","founded_year":2005,"country_code":"USA","city":"Shaker Heights","latitude":41.4865099,"longitude":-81.5257116,"number_of_employees":15,"type":"BigCompany"},{"name":"ProtoShare","category_code":"software","founded_year":2008,"country_code":"USA","city":"Portland","latitude":45.519475,"longitude":-122.675255,"number_of_employees":15,"type":"Startup"},{"name":"Vae Victis","category_code":"games_video","founded_year":2007,"country_code":"ITA","city":"Cesena","latitude":44.1480034,"longitude":12.2091265,"number_of_employees":15,"type":"BigCompany"},{"name":"Virtuosant Technology","category_code":"software","founded_year":2007,"country_code":"USA","city":"Ringgold","latitude":34.9790168,"longitude":-85.0957662,"number_of_employees":15,"type":"BigCompany"},{"name":"HomePros","category_code":"software","founded_year":2008,"country_code":"USA","city":"Austin","latitude":30.43385,"longitude":-97.739316,"number_of_employees":15,"type":"Startup"},{"name":"KeyVision","category_code":"software","founded_year":2007,"country_code":"ITA","city":"Monza (MI)","latitude":45.587212,"longitude":9.285378,"number_of_employees":14,"type":"BigCompany"},{"name":"Olark","category_code":"software","founded_year":2007,"country_code":"USA","city":"Palo Alto","latitude":37.400465,"longitude":-122.073003,"number_of_employees":14,"type":"BigCompany"},{"name":"Wuala","category_code":"software","founded_year":2007,"country_code":"CHE","city":"Zurich","latitude":47.384199,"longitude":8.492452,"number_of_employees":14,"type":"BigCompany"},{"name":"Application Experts","category_code":"software","founded_year":2006,"country_code":"USA","city":"Broomfield","latitude":39.930354,"longitude":-105.092218,"number_of_employees":14,"type":"BigCompany"},{"name":"Application Experts","category_code":"software","founded_year":2006,"country_code":"USA","city":"Broomfield","latitude":39.930354,"longitude":-105.092218,"number_of_employees":14,"type":"BigCompany"},{"name":"Mobiata","category_code":"software","founded_year":2008,"country_code":"USA","city":"Ann Arbor","latitude":42.277416,"longitude":-83.733276,"number_of_employees":14,"type":"Startup"},{"name":"Neustep","category_code":"software","founded_year":2006,"country_code":"USA","city":"Chicago","latitude":41.5911112,"longitude":-87.342177,"number_of_employees":14,"type":"BigCompany"},{"name":"Nirvaha","category_code":"software","founded_year":2007,"country_code":"USA","city":"Bellevue","latitude":47.6008008,"longitude":-122.3342585,"number_of_employees":14,"type":"BigCompany"},{"name":"MeFeedia","category_code":"games_video","founded_year":2007,"country_code":"USA","city":"Burbank","latitude":34.155869,"longitude":-118.335292,"number_of_employees":13,"type":"BigCompany"},{"name":"AtelMedia","category_code":"software","founded_year":2006,"country_code":"ESP","city":"Madrid","latitude":40.416741,"longitude":-3.70325,"number_of_employees":13,"type":"BigCompany"},{"name":"AtelMedia","category_code":"software","founded_year":2006,"country_code":"ESP","city":"Sevilla","latitude":37.38264,"longitude":-5.996295,"number_of_employees":13,"type":"BigCompany"},{"name":"AtelMedia","category_code":"software","founded_year":2006,"country_code":"ESP","city":"Alicante","latitude":38.346041,"longitude":-0.484756,"number_of_employees":13,"type":"BigCompany"},{"name":"AtelMedia","category_code":"software","founded_year":2006,"country_code":"ESP","city":"C\u00c3\u00b3rdoba","latitude":37.884727,"longitude":-4.779152,"number_of_employees":13,"type":"BigCompany"},{"name":"Intelligenes","category_code":"software","founded_year":2005,"country_code":"PAK","city":"Karachi","latitude":24.9068278,"longitude":67.0806218,"number_of_employees":13,"type":"BigCompany"},{"name":"Intelligenes","category_code":"software","founded_year":2005,"country_code":"PAK","city":"Karachi","latitude":24.9068278,"longitude":67.0806218,"number_of_employees":13,"type":"BigCompany"},{"name":"Vengeo","category_code":"software","founded_year":2008,"country_code":"CAN","city":"Toronto","latitude":43.678782,"longitude":-79.439315,"number_of_employees":13,"type":"Startup"},{"name":"Kynetx","category_code":"software","founded_year":2007,"country_code":"USA","city":"Lehi","latitude":40.4273613,"longitude":-111.8967224,"number_of_employees":13,"type":"BigCompany"},{"name":"Ceylon Solutions","category_code":"software","founded_year":2008,"country_code":"USA","city":"Denver","latitude":39.62574,"longitude":-105.092372,"number_of_employees":13,"type":"Startup"},{"name":"Gloto","category_code":"software","founded_year":2005,"country_code":"USA","city":"Fulton","latitude":39.1481859,"longitude":-76.9061739,"number_of_employees":13,"type":"BigCompany"},{"name":"scoyo","category_code":"games_video","founded_year":2009,"country_code":"DEU","city":"Hamburg","latitude":53.5622698,"longitude":9.9490139,"number_of_employees":13,"type":"Startup"},{"name":"Metaplace","category_code":"games_video","founded_year":2006,"country_code":"USA","city":"Solana Beach","latitude":33.020832,"longitude":-117.077311,"number_of_employees":12,"type":"BigCompany"},{"name":"WonderHowTo","category_code":"games_video","founded_year":2008,"country_code":"USA","city":"Santa Monica","latitude":34.031764,"longitude":-118.461884,"number_of_employees":12,"type":"Startup"},{"name":"Woopra","category_code":"software","founded_year":2008,"country_code":"USA","city":"San Francisco","latitude":31.169036,"longitude":-100.076888,"number_of_employees":12,"type":"Startup"},{"name":"FragMob","category_code":"software","founded_year":2008,"country_code":"USA","city":"San Diego","latitude":34.063441,"longitude":-118.36543,"number_of_employees":12,"type":"Startup"},{"name":"Mercury Intermedia","category_code":"software","founded_year":2004,"country_code":"USA","city":"Brentwood","latitude":36.030702,"longitude":-86.776051,"number_of_employees":12,"type":"BigCompany"},{"name":"GEN247","category_code":"games_video","founded_year":2008,"country_code":"USA","city":"Brooklyn","latitude":40.727434,"longitude":-73.9447994,"number_of_employees":12,"type":"Startup"},{"name":"Tubefilter","category_code":"games_video","founded_year":2008,"country_code":"USA","city":"Los Angeles","latitude":34.070436,"longitude":-118.350486,"number_of_employees":12,"type":"Startup"},{"name":"Mexuar Communications","category_code":"software","founded_year":2005,"country_code":"GBR","city":"Manchester","latitude":53.465082,"longitude":-2.335605,"number_of_employees":12,"type":"BigCompany"},{"name":"Tubefilter","category_code":"games_video","founded_year":2008,"country_code":"USA","city":"Los Angeles","latitude":34.070436,"longitude":-118.350486,"number_of_employees":12,"type":"Startup"},{"name":"Mexuar Communications","category_code":"software","founded_year":2005,"country_code":"GBR","city":"Manchester","latitude":53.465082,"longitude":-2.335605,"number_of_employees":12,"type":"BigCompany"},{"name":"Fusion Creative Studios","category_code":"games_video","founded_year":2006,"country_code":"USA","city":"Branford","latitude":41.303696,"longitude":-72.768842,"number_of_employees":12,"type":"BigCompany"},{"name":"DigitalDeejay","category_code":"games_video","founded_year":2005,"country_code":"FRA","city":"CALUIRE ET CUIRE","latitude":45.792717,"longitude":4.830048,"number_of_employees":12,"type":"BigCompany"},{"name":"Citizenside","category_code":"games_video","founded_year":2006,"country_code":"FRA","city":"Paris","latitude":48.8926988,"longitude":2.3179601,"number_of_employees":12,"type":"BigCompany"},{"name":"Compete-At","category_code":"games_video","founded_year":2007,"country_code":"USA","city":"Bethesda","latitude":38.9897861,"longitude":-77.0989247,"number_of_employees":12,"type":"BigCompany"},{"name":"Compete-At","category_code":"games_video","founded_year":2007,"country_code":"USA","city":"Colorado Springs","latitude":38.927596,"longitude":-104.830775,"number_of_employees":12,"type":"BigCompany"},{"name":"Socialwrks","category_code":"software","founded_year":2005,"country_code":"GBR","city":"Guildford","latitude":51.2402584,"longitude":-0.6126472,"number_of_employees":12,"type":"BigCompany"},{"name":"MixMatchMusic","category_code":"games_video","founded_year":2007,"country_code":"USA","city":"Burlingame","latitude":37.5768841,"longitude":-122.3462137,"number_of_employees":12,"type":"BigCompany"},{"name":"Shane Longman","category_code":"software","founded_year":2006,"country_code":"AUS","city":"Sydney","latitude":-37.639333,"longitude":144.9504861,"number_of_employees":12,"type":"BigCompany"},{"name":"Transifex","category_code":"software","founded_year":2009,"country_code":"USA","city":"Menlo Park","latitude":37.4513629,"longitude":-122.1842112,"number_of_employees":12,"type":"Startup"},{"name":"FreshNetworks","category_code":"software","founded_year":2007,"country_code":"GBR","city":"London","latitude":51.5178123,"longitude":-0.11796,"number_of_employees":12,"type":"BigCompany"},{"name":"ITDatabase","category_code":"software","founded_year":2007,"country_code":"USA","city":"San Francisco","latitude":37.778545,"longitude":-122.437716,"number_of_employees":12,"type":"BigCompany"},{"name":"SwapBeats","category_code":"software","founded_year":2008,"country_code":"USA","city":"Minneapolis","latitude":44.977482,"longitude":-93.264351,"number_of_employees":12,"type":"Startup"},{"name":"Garlik","category_code":"software","founded_year":2005,"country_code":"GBR","city":"Richmond","latitude":51.462108,"longitude":-0.295441,"number_of_employees":12,"type":"BigCompany"},{"name":"Garlik","category_code":"software","founded_year":2005,"country_code":"USA","city":"New York","latitude":40.7615818,"longitude":-73.970624,"number_of_employees":12,"type":"BigCompany"},{"name":"ubigrate","category_code":"software","founded_year":2008,"country_code":"DEU","city":"Dresden","latitude":51.0343624,"longitude":13.7759644,"number_of_employees":12,"type":"Startup"},{"name":"Redux","category_code":"games_video","founded_year":2007,"country_code":"USA","city":"Berkeley","latitude":37.87168,"longitude":-122.269494,"number_of_employees":11,"type":"BigCompany"},{"name":"allyve","category_code":"software","founded_year":2007,"country_code":"DEU","city":"Hamburg","latitude":53.550572,"longitude":9.997669,"number_of_employees":11,"type":"BigCompany"},{"name":"DisputeSuite","category_code":"software","founded_year":2006,"country_code":"USA","city":"New Port Richey","latitude":28.262756,"longitude":-82.728466,"number_of_employees":11,"type":"BigCompany"},{"name":"IBTgames","category_code":"games_video","founded_year":2008,"country_code":"BGD","city":"Dhaka","latitude":23.797333,"longitude":90.401432,"number_of_employees":11,"type":"Startup"},{"name":"IBTgames","category_code":"games_video","founded_year":2008,"country_code":"USA","city":"Worcester","latitude":42.23988,"longitude":-71.839344,"number_of_employees":11,"type":"Startup"},{"name":"TubeSpree","category_code":"games_video","founded_year":2007,"country_code":"USA","city":"San Francisco","latitude":37.781386,"longitude":-122.421406,"number_of_employees":11,"type":"BigCompany"},{"name":"PEX Card","category_code":"software","founded_year":2007,"country_code":"USA","city":"New York","latitude":40.752539,"longitude":-73.987871,"number_of_employees":11,"type":"BigCompany"},{"name":"JustProto","category_code":"software","founded_year":2009,"country_code":"POL","city":"Gdynia","latitude":54.520135,"longitude":18.5416342,"number_of_employees":11,"type":"Startup"},{"name":"Continuity Engine","category_code":"software","founded_year":2008,"country_code":"USA","city":"New Haven","latitude":41.3279176,"longitude":-73.2435522,"number_of_employees":11,"type":"Startup"},{"name":"Recombinant","category_code":"games_video","founded_year":2005,"country_code":"USA","city":"Santa Cruz","latitude":36.977905,"longitude":-122.03336,"number_of_employees":10,"type":"BigCompany"},{"name":"WebRidesTV","category_code":"games_video","founded_year":2006,"country_code":"USA","city":"Culver City","latitude":34.024453,"longitude":-118.380437,"number_of_employees":10,"type":"BigCompany"},{"name":"AudioMicro","category_code":"games_video","founded_year":2008,"country_code":"USA","city":"Sherman Oaks","latitude":34.153588,"longitude":-118.422495,"number_of_employees":10,"type":"Startup"},{"name":"Moviestorm","category_code":"software","founded_year":2005,"country_code":"GBR","city":"Cambridge","latitude":52.197471,"longitude":0.130588,"number_of_employees":10,"type":"BigCompany"},{"name":"Podbean LLC","category_code":"games_video","founded_year":2006,"country_code":"USA","city":"Wilmington","latitude":39.786948,"longitude":-75.485407,"number_of_employees":10,"type":"BigCompany"},{"name":"AFrame Digital","category_code":"software","founded_year":2005,"country_code":"USA","city":"Reston","latitude":38.875876,"longitude":-77.220779,"number_of_employees":10,"type":"BigCompany"},{"name":"Pixelmatic","category_code":"games_video","founded_year":2011,"country_code":"CAN","city":"Vancouver","latitude":49.263588,"longitude":-123.138565,"number_of_employees":10,"type":"Startup"},{"name":"My Damn Channel","category_code":"games_video","founded_year":2007,"country_code":"USA","city":"New York","latitude":40.754762,"longitude":-73.988543,"number_of_employees":10,"type":"BigCompany"},{"name":"My Damn Channel","category_code":"games_video","founded_year":2007,"country_code":"USA","city":"El Segundo","latitude":33.9019543,"longitude":-118.3872018,"number_of_employees":10,"type":"BigCompany"},{"name":"YOOWALK","category_code":"games_video","founded_year":2006,"country_code":"FRA","city":"Paris","latitude":48.8475487,"longitude":2.2992348,"number_of_employees":10,"type":"BigCompany"},{"name":"InterActive Applicant","category_code":"software","founded_year":2007,"country_code":"CAN","city":"Calgary","latitude":51.005717,"longitude":-114.130296,"number_of_employees":10,"type":"BigCompany"},{"name":"Producteev","category_code":"software","founded_year":2008,"country_code":"USA","city":"New York","latitude":40.775309,"longitude":-73.983656,"number_of_employees":10,"type":"Startup"},{"name":"Dooit","category_code":"software","founded_year":2008,"country_code":"ITA","city":"Treviso","latitude":45.657409,"longitude":12.22861,"number_of_employees":10,"type":"Startup"},{"name":"Producteev","category_code":"software","founded_year":2008,"country_code":"USA","city":"New York","latitude":40.775309,"longitude":-73.983656,"number_of_employees":10,"type":"Startup"},{"name":"Dooit","category_code":"software","founded_year":2008,"country_code":"ITA","city":"Treviso","latitude":45.657409,"longitude":12.22861,"number_of_employees":10,"type":"Startup"},{"name":"Roomex","category_code":"software","founded_year":2006,"country_code":"IRL","city":"Dublin","latitude":53.308258,"longitude":-6.238443,"number_of_employees":10,"type":"BigCompany"},{"name":"Radio One Llama","category_code":"games_video","founded_year":2006,"country_code":"USA","city":"Champaign","latitude":40.1128,"longitude":-88.271074,"number_of_employees":10,"type":"BigCompany"},{"name":"BonzaDat","category_code":"software","founded_year":2004,"country_code":"AUS","city":"Queensland","latitude":-27.621592,"longitude":152.778976,"number_of_employees":10,"type":"BigCompany"},{"name":"ReplayGamez","category_code":"games_video","founded_year":2008,"country_code":"USA","city":"Flowermound","latitude":29.550027,"longitude":-95.693347,"number_of_employees":10,"type":"Startup"},{"name":"MaxPowerSoft","category_code":"software","founded_year":2007,"country_code":"USA","city":"San Diego","latitude":32.908601,"longitude":-117.091176,"number_of_employees":10,"type":"BigCompany"},{"name":"SonicLiving","category_code":"games_video","founded_year":2006,"country_code":"USA","city":"San Francisco","latitude":37.8448035,"longitude":-122.290897,"number_of_employees":10,"type":"BigCompany"},{"name":"Gtm infotech","category_code":"software","founded_year":2006,"country_code":"IND","city":"Chennai","latitude":13.0600605,"longitude":80.174135,"number_of_employees":10,"type":"BigCompany"},{"name":"Pierlis","category_code":"software","founded_year":2006,"country_code":"FRA","city":"Paris","latitude":48.8762407,"longitude":2.3503689,"number_of_employees":10,"type":"BigCompany"},{"name":"Nodeta","category_code":"software","founded_year":2004,"country_code":"FIN","city":"Helsinki","latitude":60.215635,"longitude":24.8703542,"number_of_employees":10,"type":"BigCompany"},{"name":"iViioo","category_code":"games_video","founded_year":2007,"country_code":"USA","city":"","latitude":37.5340363,"longitude":-121.9131761,"number_of_employees":10,"type":"BigCompany"},{"name":"iViioo","category_code":"games_video","founded_year":2007,"country_code":"SWE","city":"Stockholm","latitude":59.3327881,"longitude":18.0644881,"number_of_employees":10,"type":"BigCompany"},{"name":"Adoroi","category_code":"software","founded_year":2007,"country_code":"USA","city":"Houston","latitude":29.7362562,"longitude":-95.6036999,"number_of_employees":10,"type":"BigCompany"},{"name":"RS Techno Solutions","category_code":"software","founded_year":2007,"country_code":"IND","city":"","latitude":26.9330943,"longitude":75.7969791,"number_of_employees":10,"type":"BigCompany"},{"name":"Filmed Media","category_code":"games_video","founded_year":2008,"country_code":"GBR","city":"London","latitude":51.5359008,"longitude":-0.2055081,"number_of_employees":10,"type":"Startup"},{"name":"Reactor Zero","category_code":"software","founded_year":2005,"country_code":"USA","city":"Ann Arbor","latitude":42.232512,"longitude":-83.7464742,"number_of_employees":10,"type":"BigCompany"},{"name":"PersonAll","category_code":"software","founded_year":2007,"country_code":"FRA","city":"Saint-Maur","latitude":48.7900014,"longitude":2.4772506,"number_of_employees":10,"type":"BigCompany"},{"name":"OutlookCloud","category_code":"software","founded_year":2008,"country_code":"USA","city":"Sunnyvale","latitude":37.3492097,"longitude":-122.0326019,"number_of_employees":10,"type":"Startup"},{"name":"SAMP2","category_code":"games_video","founded_year":2008,"country_code":"NLD","city":"Bilthoven","latitude":52.1424695,"longitude":5.2092075,"number_of_employees":10,"type":"Startup"},{"name":"Qbit","category_code":"software","founded_year":2005,"country_code":"USA","city":"Gaithersburg","latitude":39.136902,"longitude":-77.223186,"number_of_employees":10,"type":"BigCompany"},{"name":"Emoshape","category_code":"software","founded_year":2007,"country_code":"GBR","city":"London","latitude":51.5123833,"longitude":-0.1158832,"number_of_employees":10,"type":"BigCompany"},{"name":"LoomTV","category_code":"games_video","founded_year":2007,"country_code":"DEU","city":"Neuss","latitude":51.1977634,"longitude":6.6906699,"number_of_employees":10,"type":"BigCompany"},{"name":"CodeGlide","category_code":"software","founded_year":2007,"country_code":"USA","city":"San Francisco","latitude":37.7934643,"longitude":-122.3979712,"number_of_employees":10,"type":"BigCompany"},{"name":"CodeGlide","category_code":"software","founded_year":2007,"country_code":"ARG","city":"Puerto Madero","latitude":-34.6070993,"longitude":-58.3667319,"number_of_employees":10,"type":"BigCompany"},{"name":"Wisevid","category_code":"games_video","founded_year":2008,"country_code":"CAN","city":"Toronto","latitude":43.670233,"longitude":-79.386755,"number_of_employees":10,"type":"Startup"},{"name":"ScienceOps","category_code":"software","founded_year":2007,"country_code":"USA","city":"Mount Vernon","latitude":47.762959,"longitude":-122.1825889,"number_of_employees":10,"type":"BigCompany"},{"name":"Distant Measures","category_code":"software","founded_year":2006,"country_code":"USA","city":"","latitude":33.5725815,"longitude":-112.0118669,"number_of_employees":10,"type":"BigCompany"},{"name":"RedBlack Software","category_code":"software","founded_year":2006,"country_code":"USA","city":"Bedford","latitude":42.9250967,"longitude":-71.4605661,"number_of_employees":10,"type":"BigCompany"},{"name":"Touch Ahead Software","category_code":"software","founded_year":2008,"country_code":"USA","city":"Boston","latitude":42.3503375,"longitude":-71.0605985,"number_of_employees":10,"type":"Startup"},{"name":"Antelink","category_code":"software","founded_year":2009,"country_code":"FRA","city":"Paris 10\u00c3\u00a8me","latitude":48.8524775,"longitude":2.3660117,"number_of_employees":10,"type":"Startup"},{"name":"BIT TV","category_code":"games_video","founded_year":2009,"country_code":"USA","city":"Portland","latitude":45.488419,"longitude":-122.642156,"number_of_employees":10,"type":"Startup"},{"name":"AlphaPoint Technology","category_code":"software","founded_year":2009,"country_code":"USA","city":"Sarasota","latitude":27.3858,"longitude":-82.423,"number_of_employees":10,"type":"Startup"},{"name":"ColdLight Solutions","category_code":"software","founded_year":2007,"country_code":"USA","city":"Wayne","latitude":40.075096,"longitude":-75.42402,"number_of_employees":10,"type":"BigCompany"},{"name":"Primediart","category_code":"software","founded_year":2008,"country_code":"IND","city":"Kolkata","latitude":22.5985389,"longitude":88.40286,"number_of_employees":10,"type":"Startup"},{"name":"ekidnaworld","category_code":"games_video","founded_year":2010,"country_code":"AUS","city":"Queensland","latitude":-27.4574861,"longitude":153.033686,"number_of_employees":10,"type":"Startup"},{"name":"Kryptiva","category_code":"software","founded_year":2005,"country_code":"CAN","city":"Sherbrooke","latitude":45.412456,"longitude":-71.932698,"number_of_employees":10,"type":"BigCompany"},{"name":"Eventric","category_code":"software","founded_year":2009,"country_code":"USA","city":"Chicago","latitude":41.9174637,"longitude":-87.6664837,"number_of_employees":10,"type":"Startup"},{"name":"Rabbit Technologies","category_code":"software","founded_year":2007,"country_code":"GBR","city":"London","latitude":51.55738,"longitude":-0.27548,"number_of_employees":10,"type":"BigCompany"},{"name":"B32TRUST","category_code":"software","founded_year":2008,"country_code":"FRA","city":"Paris","latitude":48.8566667,"longitude":2.3509871,"number_of_employees":10,"type":"Startup"},{"name":"8th Light","category_code":"software","founded_year":2006,"country_code":"USA","city":"Libertyville","latitude":42.300188,"longitude":-88.002035,"number_of_employees":10,"type":"BigCompany"},{"name":"Novera","category_code":"software","founded_year":2006,"country_code":"AUS","city":"Sydney","latitude":-33.868898,"longitude":151.202966,"number_of_employees":10,"type":"BigCompany"},{"name":"PubliAtis","category_code":"software","founded_year":2006,"country_code":"FRA","city":"PARIS","latitude":48.8699947,"longitude":2.3406954,"number_of_employees":10,"type":"BigCompany"},{"name":"GroupSwim","category_code":"software","founded_year":2005,"country_code":"USA","city":"San Francisco","latitude":37.779558,"longitude":-122.393041,"number_of_employees":9,"type":"BigCompany"},{"name":"Mobile Rider","category_code":"software","founded_year":2005,"country_code":"USA","city":"Salt Lake City","latitude":40.739109,"longitude":-111.887733,"number_of_employees":9,"type":"BigCompany"},{"name":"Jalbum","category_code":"software","founded_year":2006,"country_code":"SWE","city":"Stockholm","latitude":59.335897,"longitude":18.08897,"number_of_employees":9,"type":"BigCompany"},{"name":"LoudClick","category_code":"software","founded_year":2006,"country_code":"USA","city":"St Paul","latitude":44.86495,"longitude":-93.288479,"number_of_employees":9,"type":"BigCompany"},{"name":"NOLOH","category_code":"software","founded_year":2005,"country_code":"USA","city":"New York","latitude":40.762975,"longitude":-73.9674,"number_of_employees":9,"type":"BigCompany"},{"name":"Occipital","category_code":"software","founded_year":2008,"country_code":"USA","city":"Boulder","latitude":40.018145,"longitude":-105.278109,"number_of_employees":9,"type":"Startup"},{"name":"Occipital","category_code":"software","founded_year":2008,"country_code":"USA","city":"Boulder","latitude":40.018145,"longitude":-105.278109,"number_of_employees":9,"type":"Startup"},{"name":"Ascribe","category_code":"software","founded_year":2008,"country_code":"USA","city":"Grand Rapids","latitude":42.9608776,"longitude":-85.6734906,"number_of_employees":9,"type":"Startup"},{"name":"doejo","category_code":"software","founded_year":2007,"country_code":"USA","city":"Chicago","latitude":41.951198,"longitude":-87.649563,"number_of_employees":9,"type":"BigCompany"},{"name":"CxT Group","category_code":"software","founded_year":2004,"country_code":"USA","city":"Bloomfield Hills","latitude":42.605626,"longitude":-83.319932,"number_of_employees":9,"type":"BigCompany"},{"name":"CxT Group","category_code":"software","founded_year":2004,"country_code":"USA","city":"San Diego","latitude":32.754305,"longitude":-117.079074,"number_of_employees":9,"type":"BigCompany"},{"name":"DreamOval","category_code":"software","founded_year":2007,"country_code":"GHA","city":"Accra","latitude":5.555717,"longitude":-0.196306,"number_of_employees":9,"type":"BigCompany"},{"name":"Hiremac","category_code":"software","founded_year":2007,"country_code":"USA","city":"Chicago","latitude":41.663359,"longitude":-87.6259052,"number_of_employees":9,"type":"BigCompany"},{"name":"YouBeQB","category_code":"games_video","founded_year":2008,"country_code":"USA","city":"Bellevue","latitude":47.597965,"longitude":-122.151158,"number_of_employees":8,"type":"Startup"},{"name":"RiffTrax","category_code":"games_video","founded_year":2006,"country_code":"USA","city":"San Diego","latitude":32.936973,"longitude":-117.240431,"number_of_employees":8,"type":"BigCompany"},{"name":"EMOB","category_code":"games_video","founded_year":2005,"country_code":"FRA","city":"Toulon","latitude":43.124351,"longitude":5.929313,"number_of_employees":8,"type":"BigCompany"},{"name":"Boomerang Data","category_code":"software","founded_year":2007,"country_code":"USA","city":"Richardson","latitude":32.974194,"longitude":-96.714066,"number_of_employees":8,"type":"BigCompany"},{"name":"XIHA","category_code":"games_video","founded_year":2007,"country_code":"FIN","city":"Helsinki","latitude":60.1681494,"longitude":24.9410012,"number_of_employees":8,"type":"BigCompany"},{"name":"XIHA","category_code":"games_video","founded_year":2007,"country_code":"USA","city":"","latitude":47.3612288,"longitude":8.5515974,"number_of_employees":8,"type":"BigCompany"},{"name":"Macroaxis","category_code":"software","founded_year":2009,"country_code":"USA","city":"San Francisco","latitude":37.7896292,"longitude":-122.3998782,"number_of_employees":8,"type":"Startup"},{"name":"NitroDesk","category_code":"software","founded_year":2008,"country_code":"USA","city":"Bellevue","latitude":47.584975,"longitude":-122.132013,"number_of_employees":8,"type":"Startup"},{"name":"inFlow Inventory Software","category_code":"software","founded_year":2007,"country_code":"CAN","city":"Toronto","latitude":43.790009,"longitude":-79.25708,"number_of_employees":8,"type":"BigCompany"},{"name":"GigMaven","category_code":"games_video","founded_year":2008,"country_code":"USA","city":"New York","latitude":40.724289,"longitude":-73.980587,"number_of_employees":8,"type":"Startup"},{"name":"Scavenja","category_code":"games_video","founded_year":2008,"country_code":"USA","city":"San Francisco","latitude":37.780134,"longitude":-122.396744,"number_of_employees":8,"type":"Startup"},{"name":"Kazzong","category_code":"games_video","founded_year":2007,"country_code":"DEU","city":"Munich","latitude":48.143941,"longitude":11.450883,"number_of_employees":8,"type":"BigCompany"},{"name":"Mixcloud","category_code":"games_video","founded_year":2008,"country_code":"GBR","city":"London","latitude":51.5399105,"longitude":-0.2859795,"number_of_employees":8,"type":"Startup"},{"name":"PX Interactive","category_code":"software","founded_year":2007,"country_code":"USA","city":"San Francisco","latitude":37.781754,"longitude":-122.407709,"number_of_employees":8,"type":"BigCompany"},{"name":"Wevod","category_code":"games_video","founded_year":2006,"country_code":"FRA","city":"Paris","latitude":48.846726,"longitude":2.321213,"number_of_employees":8,"type":"BigCompany"},{"name":"PX Interactive","category_code":"software","founded_year":2007,"country_code":"USA","city":"San Francisco","latitude":37.781754,"longitude":-122.407709,"number_of_employees":8,"type":"BigCompany"},{"name":"Wevod","category_code":"games_video","founded_year":2006,"country_code":"FRA","city":"Paris","latitude":48.846726,"longitude":2.321213,"number_of_employees":8,"type":"BigCompany"},{"name":"BuzzStream","category_code":"software","founded_year":2008,"country_code":"USA","city":"Austin","latitude":30.290699,"longitude":-97.750885,"number_of_employees":8,"type":"Startup"},{"name":"SureSpeak","category_code":"games_video","founded_year":2007,"country_code":"USA","city":"Chicago","latitude":41.889183,"longitude":-87.632519,"number_of_employees":8,"type":"BigCompany"},{"name":"ZimpleMoney","category_code":"software","founded_year":2008,"country_code":"USA","city":"Costa Mesa","latitude":33.6396749,"longitude":-117.9416077,"number_of_employees":8,"type":"Startup"},{"name":"DBL LLC","category_code":"games_video","founded_year":2007,"country_code":"USA","city":"Spartanburg","latitude":34.964436,"longitude":-81.968024,"number_of_employees":8,"type":"BigCompany"},{"name":"deeplocal","category_code":"software","founded_year":2006,"country_code":"USA","city":"Pittsburgh","latitude":40.461149,"longitude":-79.923411,"number_of_employees":8,"type":"BigCompany"},{"name":"StockNod","category_code":"software","founded_year":2007,"country_code":"USA","city":"Bee Cave","latitude":30.298143,"longitude":-97.96114,"number_of_employees":8,"type":"BigCompany"},{"name":"MediaRich","category_code":"games_video","founded_year":2004,"country_code":"USA","city":"San Antonio","latitude":29.414897,"longitude":-98.48972,"number_of_employees":8,"type":"BigCompany"},{"name":"1calendar","category_code":"software","founded_year":2009,"country_code":"DNK","city":"Copenhagen","latitude":55.6770321,"longitude":12.5751278,"number_of_employees":8,"type":"Startup"},{"name":"1calendar","category_code":"software","founded_year":2009,"country_code":"DNK","city":"Copenhagen","latitude":55.6802318,"longitude":12.524884,"number_of_employees":8,"type":"Startup"},{"name":"Owngig","category_code":"games_video","founded_year":2008,"country_code":"GBR","city":"London","latitude":39.39615,"longitude":22.76303,"number_of_employees":8,"type":"Startup"},{"name":"makandra","category_code":"software","founded_year":2009,"country_code":"DEU","city":"Augsburg","latitude":48.3400291,"longitude":10.9059804,"number_of_employees":8,"type":"Startup"},{"name":"IndiaOnAPage","category_code":"software","founded_year":2009,"country_code":"IND","city":"Bangalore","latitude":12.9164537,"longitude":77.6101165,"number_of_employees":8,"type":"Startup"},{"name":"VISup","category_code":"software","founded_year":2007,"country_code":"ITA","city":"MILANO","latitude":45.4650967,"longitude":9.2114266,"number_of_employees":8,"type":"BigCompany"},{"name":"C3 SoftWorks","category_code":"software","founded_year":2006,"country_code":"USA","city":"Minneapolis","latitude":44.9851554,"longitude":-93.2709923,"number_of_employees":8,"type":"BigCompany"},{"name":"Sauspiel","category_code":"games_video","founded_year":2007,"country_code":"DEU","city":"Berlin","latitude":52.4943074,"longitude":13.434474,"number_of_employees":8,"type":"BigCompany"},{"name":"DJ Nitrogen","category_code":"games_video","founded_year":2007,"country_code":"USA","city":"San Francisco","latitude":37.7841737,"longitude":-122.4494082,"number_of_employees":8,"type":"BigCompany"},{"name":"alluc","category_code":"games_video","founded_year":2009,"country_code":"DEU","city":"Norderstedt","latitude":53.707739,"longitude":10.023246,"number_of_employees":7,"type":"Startup"},{"name":"Franson Technology AB","category_code":"software","founded_year":2004,"country_code":"SWE","city":"Stockholm","latitude":59.342079,"longitude":18.057102,"number_of_employees":7,"type":"BigCompany"},{"name":"dotSyntax","category_code":"software","founded_year":2006,"country_code":"USA","city":"Rochester","latitude":43.073968,"longitude":-77.663171,"number_of_employees":7,"type":"BigCompany"},{"name":"JobScore","category_code":"software","founded_year":2004,"country_code":"USA","city":"San Francisco","latitude":37.7881481,"longitude":-122.3943387,"number_of_employees":7,"type":"BigCompany"},{"name":"Envient","category_code":"software","founded_year":2006,"country_code":"ROM","city":"Bucharest","latitude":45.943161,"longitude":24.96676,"number_of_employees":7,"type":"BigCompany"},{"name":"Signal","category_code":"software","founded_year":2006,"country_code":"USA","city":"Chicago","latitude":41.8883695,"longitude":-87.6353645,"number_of_employees":7,"type":"BigCompany"},{"name":"plaYce","category_code":"games_video","founded_year":2008,"country_code":"USA","city":"San Francisco","latitude":37.80204,"longitude":-122.438231,"number_of_employees":7,"type":"Startup"},{"name":"plaYce","category_code":"games_video","founded_year":2008,"country_code":"USA","city":"San Francisco","latitude":37.80204,"longitude":-122.438231,"number_of_employees":7,"type":"Startup"},{"name":"iKlax Media","category_code":"software","founded_year":2008,"country_code":"FRA","city":"BIDART","latitude":43.4477272,"longitude":-1.5555799,"number_of_employees":7,"type":"Startup"},{"name":"Rezgo","category_code":"software","founded_year":2007,"country_code":"CAN","city":"North Vancouver","latitude":49.311752,"longitude":-123.078758,"number_of_employees":7,"type":"BigCompany"},{"name":"Alliance Card","category_code":"software","founded_year":2005,"country_code":"USA","city":"Burnsville","latitude":44.785024,"longitude":-93.251434,"number_of_employees":7,"type":"BigCompany"},{"name":"InnovSoft Consulting Limited","category_code":"games_video","founded_year":2008,"country_code":"CAN","city":"Laval","latitude":45.5411602,"longitude":-73.7481222,"number_of_employees":7,"type":"Startup"},{"name":"Adlogix","category_code":"software","founded_year":2007,"country_code":"BEL","city":"Brussels","latitude":50.8197063,"longitude":4.325488,"number_of_employees":7,"type":"BigCompany"},{"name":"Did it Leak","category_code":"games_video","founded_year":2007,"country_code":"CAN","city":"Vancouver","latitude":49.27964,"longitude":-123.1204046,"number_of_employees":7,"type":"BigCompany"},{"name":"Did it Leak","category_code":"games_video","founded_year":2007,"country_code":"GBR","city":"Belfast","latitude":54.5972686,"longitude":-5.9301088,"number_of_employees":7,"type":"BigCompany"},{"name":"Did it Leak","category_code":"games_video","founded_year":2007,"country_code":"BRA","city":"Salo Paulo","latitude":-23.5489433,"longitude":-46.6388182,"number_of_employees":7,"type":"BigCompany"},{"name":"Hireglyphics","category_code":"software","founded_year":2008,"country_code":"CAN","city":"Toronto","latitude":43.6366465,"longitude":-79.4264794,"number_of_employees":7,"type":"Startup"},{"name":"Klaxa","category_code":"software","founded_year":2007,"country_code":"CAN","city":"Montreal","latitude":45.4874956,"longitude":-73.5909495,"number_of_employees":7,"type":"BigCompany"},{"name":"StickyStreet","category_code":"software","founded_year":2008,"country_code":"USA","city":"Washington","latitude":38.897145,"longitude":-77.068963,"number_of_employees":7,"type":"Startup"},{"name":"Link Trigger","category_code":"software","founded_year":2008,"country_code":"USA","city":"Fort Lauderdale","latitude":26.2032036,"longitude":-80.1510951,"number_of_employees":7,"type":"Startup"},{"name":"Aptocore","category_code":"games_video","founded_year":2008,"country_code":"DNK","city":"Copenhagen","latitude":55.6975098,"longitude":12.5401817,"number_of_employees":7,"type":"Startup"},{"name":"MetaGeek, LLC","category_code":"software","founded_year":2005,"country_code":"USA","city":"Boise","latitude":43.608974,"longitude":-116.308755,"number_of_employees":7,"type":"BigCompany"},{"name":"Video Game 911","category_code":"games_video","founded_year":2005,"country_code":"USA","city":"Denville","latitude":40.878656,"longitude":-74.4800198,"number_of_employees":7,"type":"BigCompany"},{"name":"ftopia","category_code":"software","founded_year":2009,"country_code":"FRA","city":"Paris","latitude":53.3328144,"longitude":-6.2493777,"number_of_employees":7,"type":"Startup"},{"name":"Vuzit","category_code":"software","founded_year":2006,"country_code":"USA","city":"Philadelphia","latitude":39.9564403,"longitude":-75.1961715,"number_of_employees":6,"type":"BigCompany"},{"name":"Booklamp","category_code":"software","founded_year":2007,"country_code":"USA","city":"","latitude":45.494552,"longitude":-114.143262,"number_of_employees":6,"type":"BigCompany"},{"name":"Toufee","category_code":"games_video","founded_year":2005,"country_code":"IND","city":"New Delhi","latitude":28.559421,"longitude":77.198911,"number_of_employees":6,"type":"BigCompany"},{"name":"Episodic","category_code":"games_video","founded_year":2008,"country_code":"USA","city":"","latitude":37.269175,"longitude":-119.306607,"number_of_employees":6,"type":"Startup"},{"name":"KIVISOFT","category_code":"software","founded_year":2007,"country_code":"TUR","city":"istanbul","latitude":41.06052,"longitude":28.977046,"number_of_employees":6,"type":"BigCompany"},{"name":"EADOC","category_code":"software","founded_year":2006,"country_code":"USA","city":"Oakland","latitude":37.804436,"longitude":-122.270677,"number_of_employees":6,"type":"BigCompany"},{"name":"Fuzz","category_code":"games_video","founded_year":2011,"country_code":"USA","city":"Santa Clara","latitude":37.760524,"longitude":-122.387799,"number_of_employees":6,"type":"Startup"},{"name":"rVita","category_code":"software","founded_year":2007,"country_code":"USA","city":"Santa Clara","latitude":37.398476,"longitude":-121.978821,"number_of_employees":6,"type":"BigCompany"},{"name":"Pinch Media","category_code":"software","founded_year":2008,"country_code":"USA","city":"New York","latitude":40.757929,"longitude":-73.985506,"number_of_employees":6,"type":"Startup"},{"name":"Nexnet","category_code":"software","founded_year":2007,"country_code":"USA","city":"Knoxville","latitude":35.921428,"longitude":-84.084137,"number_of_employees":6,"type":"BigCompany"},{"name":"Dreamsoft Technologies","category_code":"software","founded_year":2007,"country_code":"GBR","city":"","latitude":53.616352,"longitude":-2.15871,"number_of_employees":6,"type":"BigCompany"},{"name":"TennisPoint","category_code":"software","founded_year":2007,"country_code":"USA","city":"Marietta","latitude":33.939116,"longitude":-84.444006,"number_of_employees":6,"type":"BigCompany"},{"name":"LOG607","category_code":"games_video","founded_year":2007,"country_code":"ITA","city":"Roncade TV","latitude":45.564209,"longitude":12.436354,"number_of_employees":6,"type":"BigCompany"},{"name":"Pelotonics","category_code":"software","founded_year":2007,"country_code":"USA","city":"San Diego","latitude":32.891152,"longitude":-117.200712,"number_of_employees":6,"type":"BigCompany"},{"name":"Red Wolf Online","category_code":"software","founded_year":2007,"country_code":"CAN","city":"Toronto","latitude":43.70452,"longitude":-79.458419,"number_of_employees":6,"type":"BigCompany"},{"name":"2GeeksinaLab","category_code":"software","founded_year":2004,"country_code":"USA","city":"Palmdale","latitude":34.633698,"longitude":-118.152249,"number_of_employees":6,"type":"BigCompany"},{"name":"Red Wolf Online","category_code":"software","founded_year":2007,"country_code":"CAN","city":"Toronto","latitude":43.70452,"longitude":-79.458419,"number_of_employees":6,"type":"BigCompany"},{"name":"2GeeksinaLab","category_code":"software","founded_year":2004,"country_code":"USA","city":"Palmdale","latitude":34.633698,"longitude":-118.152249,"number_of_employees":6,"type":"BigCompany"},{"name":"pomeloTV","category_code":"software","founded_year":2007,"country_code":"ESP","city":"Madrid","latitude":40.4367771,"longitude":-3.6685036,"number_of_employees":6,"type":"BigCompany"},{"name":"Plura Processing","category_code":"software","founded_year":2007,"country_code":"USA","city":"Houston","latitude":29.787991,"longitude":-95.598441,"number_of_employees":6,"type":"BigCompany"},{"name":"Striker Manager","category_code":"software","founded_year":2007,"country_code":"ESP","city":"Barcelona","latitude":41.4063346,"longitude":2.1920231,"number_of_employees":6,"type":"BigCompany"},{"name":"Botego","category_code":"software","founded_year":2007,"country_code":"TUR","city":"Istanbul","latitude":41.043039,"longitude":29.003631,"number_of_employees":6,"type":"BigCompany"},{"name":"Mashup Arts","category_code":"software","founded_year":2007,"country_code":"CAN","city":"Halifax","latitude":43.648786,"longitude":-79.3777473,"number_of_employees":6,"type":"BigCompany"},{"name":"Dodreams","category_code":"games_video","founded_year":2008,"country_code":"FIN","city":"","latitude":60.1659819,"longitude":24.9438568,"number_of_employees":6,"type":"Startup"},{"name":"PlanningWiz","category_code":"software","founded_year":2007,"country_code":"DEU","city":"M\u0081\u0081\u00fcnster","latitude":51.9266839,"longitude":7.6341781,"number_of_employees":6,"type":"BigCompany"},{"name":"iPlanmaker","category_code":"software","founded_year":2008,"country_code":"USA","city":"Chicago","latitude":41.8719878,"longitude":-87.6416957,"number_of_employees":6,"type":"Startup"},{"name":"DP7 Digital","category_code":"software","founded_year":2009,"country_code":"BRA","city":"Sao Paulo","latitude":-23.5815208,"longitude":-46.6773686,"number_of_employees":6,"type":"Startup"},{"name":"DP7 Digital","category_code":"software","founded_year":2009,"country_code":"BRA","city":"Florianopolis","latitude":-27.5995476,"longitude":-48.5483418,"number_of_employees":6,"type":"Startup"},{"name":"DataFeedScripts","category_code":"software","founded_year":2007,"country_code":"USA","city":"Lynden","latitude":48.9423947,"longitude":-122.4544302,"number_of_employees":6,"type":"BigCompany"},{"name":"Lipperhey","category_code":"software","founded_year":2009,"country_code":"NLD","city":"Amsterdam","latitude":52.3655578,"longitude":4.9345824,"number_of_employees":6,"type":"Startup"},{"name":"JumpBox","category_code":"software","founded_year":2006,"country_code":"USA","city":"Phoenix","latitude":33.429864,"longitude":-111.944967,"number_of_employees":5,"type":"BigCompany"},{"name":"SuTree","category_code":"games_video","founded_year":2006,"country_code":"ISR","city":"Tel Aviv","latitude":32.0554,"longitude":34.7595,"number_of_employees":5,"type":"BigCompany"},{"name":"GotCast","category_code":"games_video","founded_year":2007,"country_code":"USA","city":"Los Angleles","latitude":34.064139,"longitude":-118.468672,"number_of_employees":5,"type":"BigCompany"},{"name":"LiveHire","category_code":"games_video","founded_year":2007,"country_code":"USA","city":"Edison","latitude":40.565602,"longitude":-74.331811,"number_of_employees":5,"type":"BigCompany"},{"name":"WorldTV","category_code":"games_video","founded_year":2006,"country_code":"IRL","city":"Limerick","latitude":52.6638571,"longitude":-8.6267726,"number_of_employees":5,"type":"BigCompany"},{"name":"WorldTV","category_code":"games_video","founded_year":2006,"country_code":"GBR","city":"London","latitude":51.5001524,"longitude":-0.1262362,"number_of_employees":5,"type":"BigCompany"},{"name":"HeadStrong Brain Gym","category_code":"software","founded_year":2006,"country_code":"USA","city":"New York","latitude":40.75033,"longitude":-73.968173,"number_of_employees":5,"type":"BigCompany"},{"name":"HD Greetings","category_code":"games_video","founded_year":2007,"country_code":"USA","city":"Burlingame","latitude":37.590056,"longitude":-122.347654,"number_of_employees":5,"type":"BigCompany"},{"name":"doXtop","category_code":"software","founded_year":2007,"country_code":"DEU","city":"Ostfildern","latitude":48.7243517,"longitude":9.2223731,"number_of_employees":5,"type":"BigCompany"},{"name":"Viddyou","category_code":"games_video","founded_year":2007,"country_code":"USA","city":"San Francisco","latitude":37.775196,"longitude":-122.419204,"number_of_employees":5,"type":"BigCompany"},{"name":"Omnivents","category_code":"games_video","founded_year":2007,"country_code":"USA","city":"Palo Alto","latitude":37.44296,"longitude":-122.151198,"number_of_employees":5,"type":"BigCompany"},{"name":"SuperVirals","category_code":"games_video","founded_year":2006,"country_code":"AUS","city":"Surry Hills","latitude":-33.88106,"longitude":151.209351,"number_of_employees":5,"type":"BigCompany"},{"name":"Rekatu","category_code":"games_video","founded_year":2008,"country_code":"USA","city":"Tucson","latitude":32.240301,"longitude":-110.958319,"number_of_employees":5,"type":"Startup"},{"name":"Posh24","category_code":"games_video","founded_year":2007,"country_code":"USA","city":"Stockholm","latitude":59.332788,"longitude":18.064488,"number_of_employees":5,"type":"BigCompany"},{"name":"Crowded Games","category_code":"software","founded_year":2007,"country_code":"CAN","city":"Calgary","latitude":50.957706,"longitude":-114.113778,"number_of_employees":5,"type":"BigCompany"},{"name":"Nectil","category_code":"software","founded_year":2004,"country_code":"BEL","city":"Brussels","latitude":50.871109,"longitude":4.345542,"number_of_employees":5,"type":"BigCompany"},{"name":"Batipi","category_code":"games_video","founded_year":2004,"country_code":"CAN","city":"Toronto","latitude":43.6436826,"longitude":-79.4038652,"number_of_employees":5,"type":"BigCompany"},{"name":"Identyx","category_code":"software","founded_year":2006,"country_code":"USA","city":"Austin","latitude":30.39791,"longitude":-97.748714,"number_of_employees":5,"type":"BigCompany"},{"name":"Hive7","category_code":"games_video","founded_year":2006,"country_code":"USA","city":"Palo Alto","latitude":37.44296,"longitude":-122.151198,"number_of_employees":5,"type":"BigCompany"},{"name":"RedPost","category_code":"software","founded_year":2007,"country_code":"USA","city":"Goshen","latitude":41.5849122,"longitude":-85.8329972,"number_of_employees":5,"type":"BigCompany"},{"name":"RedPost","category_code":"software","founded_year":2007,"country_code":"USA","city":"Goshen","latitude":41.5850606,"longitude":-85.8342029,"number_of_employees":5,"type":"BigCompany"},{"name":"Carfeine","category_code":"software","founded_year":2012,"country_code":"USA","city":"Bethesda","latitude":38.989124,"longitude":-77.026676,"number_of_employees":5,"type":"Startup"},{"name":"Syntac Ventures","category_code":"software","founded_year":2007,"country_code":"AUS","city":"Melbourne","latitude":-37.813339,"longitude":144.970823,"number_of_employees":5,"type":"BigCompany"},{"name":"ORELIA","category_code":"software","founded_year":2007,"country_code":"FRA","city":"Fontainebleau","latitude":48.407483,"longitude":2.701038,"number_of_employees":5,"type":"BigCompany"},{"name":"ORELIA","category_code":"software","founded_year":2007,"country_code":"FRA","city":"THOMERY","latitude":48.423737,"longitude":2.74495,"number_of_employees":5,"type":"BigCompany"},{"name":"Blue Sky Technologies","category_code":"software","founded_year":2005,"country_code":"USA","city":"Coppell","latitude":32.9844884,"longitude":-96.9932926,"number_of_employees":5,"type":"BigCompany"},{"name":"Uprizer Labs","category_code":"software","founded_year":2008,"country_code":"USA","city":"Austin","latitude":30.291391,"longitude":-97.710481,"number_of_employees":5,"type":"Startup"},{"name":"TimeLapse mobile","category_code":"software","founded_year":2006,"country_code":"USA","city":"Novato","latitude":38.068295,"longitude":-122.532658,"number_of_employees":5,"type":"BigCompany"},{"name":"ipsojobs","category_code":"software","founded_year":2007,"country_code":"ESP","city":"Barcelona","latitude":41.406248,"longitude":2.163194,"number_of_employees":5,"type":"BigCompany"},{"name":"TweetDeck","category_code":"software","founded_year":2008,"country_code":"GBR","city":"London","latitude":51.5001524,"longitude":-0.1262362,"number_of_employees":5,"type":"Startup"},{"name":"FABINET","category_code":"games_video","founded_year":2007,"country_code":"DEU","city":"Leipzig","latitude":51.318503,"longitude":12.381492,"number_of_employees":5,"type":"BigCompany"},{"name":"Instil Software","category_code":"software","founded_year":2005,"country_code":"GBR","city":"Belfast","latitude":54.597233,"longitude":-5.87908,"number_of_employees":5,"type":"BigCompany"},{"name":"Intelliverb","category_code":"software","founded_year":2006,"country_code":"USA","city":"Laurel","latitude":39.143942,"longitude":-76.877448,"number_of_employees":5,"type":"BigCompany"},{"name":"Bridgevest eSolutions","category_code":"software","founded_year":2007,"country_code":"NLD","city":"Rotterdam","latitude":51.916547,"longitude":4.475797,"number_of_employees":5,"type":"BigCompany"},{"name":"Tingz","category_code":"software","founded_year":2007,"country_code":"USA","city":"Knoxville","latitude":35.963029,"longitude":-83.918392,"number_of_employees":5,"type":"BigCompany"},{"name":"Bojam","category_code":"games_video","founded_year":2008,"country_code":"USA","city":"Palo Alto","latitude":37.448598,"longitude":-122.158497,"number_of_employees":5,"type":"Startup"},{"name":"Project Amarillo","category_code":"games_video","founded_year":2005,"country_code":"USA","city":"Amarillo","latitude":33.5159679,"longitude":-101.905099,"number_of_employees":5,"type":"BigCompany"},{"name":"UpdateStar","category_code":"software","founded_year":2008,"country_code":"DEU","city":"Berlin","latitude":52.583651,"longitude":13.285504,"number_of_employees":5,"type":"Startup"},{"name":"Bridgevest eSolutions","category_code":"software","founded_year":2007,"country_code":"NLD","city":"Rotterdam","latitude":51.916547,"longitude":4.475797,"number_of_employees":5,"type":"BigCompany"},{"name":"Tingz","category_code":"software","founded_year":2007,"country_code":"USA","city":"Knoxville","latitude":35.963029,"longitude":-83.918392,"number_of_employees":5,"type":"BigCompany"},{"name":"Bojam","category_code":"games_video","founded_year":2008,"country_code":"USA","city":"Palo Alto","latitude":37.448598,"longitude":-122.158497,"number_of_employees":5,"type":"Startup"},{"name":"Project Amarillo","category_code":"games_video","founded_year":2005,"country_code":"USA","city":"Amarillo","latitude":33.5159679,"longitude":-101.905099,"number_of_employees":5,"type":"BigCompany"},{"name":"UpdateStar","category_code":"software","founded_year":2008,"country_code":"DEU","city":"Berlin","latitude":52.583651,"longitude":13.285504,"number_of_employees":5,"type":"Startup"},{"name":"VistaDB Software","category_code":"software","founded_year":2007,"country_code":"USA","city":"Mount Dora","latitude":28.84103,"longitude":-81.685333,"number_of_employees":5,"type":"BigCompany"},{"name":"TWIOA","category_code":"games_video","founded_year":2008,"country_code":"USA","city":"Toledo","latitude":41.65292,"longitude":-83.577782,"number_of_employees":5,"type":"Startup"},{"name":"Musicreview","category_code":"games_video","founded_year":2006,"country_code":"IRL","city":"dublin","latitude":53.335773,"longitude":-6.371726,"number_of_employees":5,"type":"BigCompany"},{"name":"Gigantiq","category_code":"software","founded_year":2007,"country_code":"AUS","city":"Melbourne","latitude":-37.813339,"longitude":144.970823,"number_of_employees":5,"type":"BigCompany"},{"name":"Buzzr","category_code":"software","founded_year":2008,"country_code":"USA","city":"New York","latitude":40.740941,"longitude":-73.992609,"number_of_employees":5,"type":"Startup"},{"name":"StellarSurvey","category_code":"software","founded_year":2008,"country_code":"USA","city":"Milwaukee","latitude":43.097697,"longitude":-87.895093,"number_of_employees":5,"type":"Startup"},{"name":"Rubysophic","category_code":"software","founded_year":2008,"country_code":"USA","city":"Moraga","latitude":37.860866,"longitude":-122.129671,"number_of_employees":5,"type":"Startup"},{"name":"MindSpring Software","category_code":"software","founded_year":2007,"country_code":"USA","city":"Overland Park","latitude":38.929216,"longitude":-94.68567,"number_of_employees":5,"type":"BigCompany"},{"name":"ZOOZ Mobile","category_code":"games_video","founded_year":2008,"country_code":"USA","city":"Atlanta","latitude":33.961646,"longitude":-84.368975,"number_of_employees":5,"type":"Startup"},{"name":"Pilotlite","category_code":"games_video","founded_year":2007,"country_code":"USA","city":"New York","latitude":40.7166822,"longitude":-74.005398,"number_of_employees":5,"type":"BigCompany"},{"name":"Away","category_code":"games_video","founded_year":2006,"country_code":"GRC","city":"Athens","latitude":37.9815443,"longitude":23.7569904,"number_of_employees":5,"type":"BigCompany"},{"name":"ShedWorx","category_code":"software","founded_year":2007,"country_code":"AUS","city":"Nedlands, WA","latitude":-31.97302,"longitude":115.813457,"number_of_employees":5,"type":"BigCompany"},{"name":"VIDDIX","category_code":"games_video","founded_year":2007,"country_code":"NLD","city":"Utrecht","latitude":52.0848526,"longitude":5.1682449,"number_of_employees":5,"type":"BigCompany"},{"name":"speroware","category_code":"software","founded_year":2005,"country_code":"IND","city":"Bangalore","latitude":12.9289835,"longitude":77.5652543,"number_of_employees":5,"type":"BigCompany"},{"name":"Clikthrough","category_code":"software","founded_year":2007,"country_code":"USA","city":"San Francisco","latitude":37.7965781,"longitude":-122.4022856,"number_of_employees":5,"type":"BigCompany"},{"name":"MyOtherDrive","category_code":"games_video","founded_year":2005,"country_code":"USA","city":"Dayton","latitude":39.7605421,"longitude":-84.1949463,"number_of_employees":5,"type":"BigCompany"},{"name":"RealityWanted","category_code":"games_video","founded_year":2004,"country_code":"USA","city":"Manhattan Beach","latitude":33.889965,"longitude":-118.396254,"number_of_employees":5,"type":"BigCompany"},{"name":"Calyx","category_code":"software","founded_year":2007,"country_code":"HRV","city":"Zagreb","latitude":45.802893,"longitude":15.9716176,"number_of_employees":5,"type":"BigCompany"},{"name":"CareerPlayer","category_code":"games_video","founded_year":2008,"country_code":"GBR","city":"London","latitude":51.5001524,"longitude":-0.1262362,"number_of_employees":5,"type":"Startup"},{"name":"iugo","category_code":"software","founded_year":2008,"country_code":"USA","city":"Wheeling","latitude":40.0676659,"longitude":-80.7237385,"number_of_employees":5,"type":"Startup"},{"name":"iugo","category_code":"software","founded_year":2008,"country_code":"USA","city":"Philadelphia","latitude":40.032121,"longitude":-75.191867,"number_of_employees":5,"type":"Startup"},{"name":"Kramaley Games","category_code":"games_video","founded_year":2008,"country_code":"GBR","city":"London","latitude":51.4944999,"longitude":-0.1479318,"number_of_employees":5,"type":"Startup"},{"name":"Entropy Computational Services","category_code":"games_video","founded_year":2007,"country_code":"ESP","city":"Madrid","latitude":40.4380872,"longitude":-3.6760635,"number_of_employees":5,"type":"BigCompany"},{"name":"sexietv","category_code":"software","founded_year":2008,"country_code":"GBR","city":"london","latitude":51.4213618,"longitude":-0.2075938,"number_of_employees":5,"type":"Startup"},{"name":"Sabi","category_code":"games_video","founded_year":2008,"country_code":"USA","city":"Kirkland","latitude":47.6667342,"longitude":-122.1958685,"number_of_employees":5,"type":"Startup"},{"name":"SocialRoster","category_code":"games_video","founded_year":2007,"country_code":"USA","city":"Baltimore","latitude":39.2949894,"longitude":-76.6094997,"number_of_employees":5,"type":"BigCompany"},{"name":"SocialRoster","category_code":"games_video","founded_year":2007,"country_code":"USA","city":"Smithtown","latitude":40.856595,"longitude":-73.203734,"number_of_employees":5,"type":"BigCompany"},{"name":"Kalexo","category_code":"software","founded_year":2006,"country_code":"USA","city":"Burlingame","latitude":37.589692,"longitude":-122.340723,"number_of_employees":5,"type":"BigCompany"},{"name":"UQ Events","category_code":"games_video","founded_year":2007,"country_code":"CAN","city":"North Vancouver","latitude":49.3484032,"longitude":-123.0778974,"number_of_employees":5,"type":"BigCompany"},{"name":"Sentry Parental Controls","category_code":"software","founded_year":2008,"country_code":"GBR","city":"Manchester","latitude":53.5195474,"longitude":-2.2550847,"number_of_employees":5,"type":"Startup"},{"name":"Elca Solutions","category_code":"software","founded_year":2007,"country_code":"USA","city":"Gainesville","latitude":29.6666736,"longitude":-82.3375529,"number_of_employees":5,"type":"BigCompany"},{"name":"Arimaz","category_code":"games_video","founded_year":2008,"country_code":"CHE","city":"Renens","latitude":46.5389248,"longitude":6.5877024,"number_of_employees":5,"type":"Startup"},{"name":"AmberBit","category_code":"software","founded_year":2008,"country_code":"POL","city":"Bia\u00c5\u201aystok","latitude":53.1371088,"longitude":23.1540917,"number_of_employees":5,"type":"Startup"},{"name":"Actionize","category_code":"software","founded_year":2007,"country_code":"CHE","city":"Basel","latitude":47.5596145,"longitude":7.5806107,"number_of_employees":5,"type":"BigCompany"},{"name":"Actionize","category_code":"software","founded_year":2007,"country_code":"USA","city":"Boston","latitude":42.35892,"longitude":-71.05781,"number_of_employees":5,"type":"BigCompany"},{"name":"Loop11","category_code":"software","founded_year":2008,"country_code":"AUS","city":"South Melbourne","latitude":-37.8361,"longitude":144.9563945,"number_of_employees":5,"type":"Startup"},{"name":"CineSoft","category_code":"software","founded_year":2009,"country_code":"RUS","city":"Moscow","latitude":55.7794043,"longitude":37.6899674,"number_of_employees":5,"type":"Startup"},{"name":"BoardEvals","category_code":"software","founded_year":2008,"country_code":"USA","city":"El Dorado Hills","latitude":38.709006,"longitude":-121.084432,"number_of_employees":5,"type":"Startup"},{"name":"Jumbilo","category_code":"software","founded_year":2008,"country_code":"AUS","city":"Eagle Heights","latitude":-27.917488,"longitude":153.2075297,"number_of_employees":5,"type":"Startup"},{"name":"Dance Channel TV, Inc","category_code":"games_video","founded_year":2008,"country_code":"USA","city":"North Hollywood","latitude":34.1658804,"longitude":-118.3637264,"number_of_employees":5,"type":"Startup"},{"name":"HashCube","category_code":"games_video","founded_year":2008,"country_code":"IND","city":"","latitude":12.910491,"longitude":77.5857168,"number_of_employees":5,"type":"Startup"},{"name":"Undead Code Studios","category_code":"games_video","founded_year":2009,"country_code":"ESP","city":"Madrid","latitude":40.6367104,"longitude":-3.9980485,"number_of_employees":5,"type":"Startup"},{"name":"ExpanDrive","category_code":"software","founded_year":2004,"country_code":"USA","city":"Cambridge","latitude":42.375392,"longitude":-71.118487,"number_of_employees":5,"type":"BigCompany"},{"name":"ResuWe","category_code":"software","founded_year":2009,"country_code":"USA","city":"Laguna Beach","latitude":33.5341548,"longitude":-117.7769669,"number_of_employees":5,"type":"Startup"},{"name":"OnlineMQ","category_code":"software","founded_year":2008,"country_code":"NLD","city":"Den-Haag","latitude":52.0889889,"longitude":4.3016891,"number_of_employees":5,"type":"Startup"},{"name":"Taxi Fares app","category_code":"software","founded_year":2009,"country_code":"ESP","city":"Madrid","latitude":40.4244585,"longitude":-3.6990948,"number_of_employees":5,"type":"Startup"},{"name":"Keen Software House","category_code":"games_video","founded_year":2007,"country_code":"GBR","city":"London","latitude":51.5220763,"longitude":-0.1153003,"number_of_employees":5,"type":"BigCompany"},{"name":"Film Annex","category_code":"games_video","founded_year":2006,"country_code":"USA","city":"New York","latitude":40.7464969,"longitude":-74.0094471,"number_of_employees":5,"type":"BigCompany"},{"name":"Meeho!","category_code":"software","founded_year":2007,"country_code":"DNK","city":"Herlev","latitude":55.7525253,"longitude":12.3933043,"number_of_employees":5,"type":"BigCompany"},{"name":"Camlink","category_code":"games_video","founded_year":2007,"country_code":"USA","city":"Los Gatos","latitude":40.757929,"longitude":-73.985506,"number_of_employees":4,"type":"BigCompany"},{"name":"Realtime Applications","category_code":"software","founded_year":2004,"country_code":"USA","city":"Birmingham","latitude":33.477448,"longitude":-86.819367,"number_of_employees":4,"type":"BigCompany"},{"name":"MyMiniLife","category_code":"games_video","founded_year":2007,"country_code":"USA","city":"Palo Alto","latitude":37.437328,"longitude":-122.159928,"number_of_employees":4,"type":"BigCompany"},{"name":"HungryFlix","category_code":"games_video","founded_year":2007,"country_code":"USA","city":"Caldwell","latitude":40.84014,"longitude":-74.276451,"number_of_employees":4,"type":"BigCompany"},{"name":"itbreaks","category_code":"games_video","founded_year":2007,"country_code":"FRA","city":"Pre st gervais","latitude":48.887824,"longitude":2.402304,"number_of_employees":4,"type":"BigCompany"},{"name":"Edistorm","category_code":"software","founded_year":2008,"country_code":"CAN","city":"Edmonton","latitude":53.534692,"longitude":-113.502765,"number_of_employees":4,"type":"Startup"},{"name":"imcandy","category_code":"games_video","founded_year":2007,"country_code":"ISR","city":"","latitude":31.046051,"longitude":34.851612,"number_of_employees":4,"type":"BigCompany"},{"name":"Coolboysoft","category_code":"software","founded_year":2007,"country_code":"CAN","city":"","latitude":56.130366,"longitude":-106.346771,"number_of_employees":4,"type":"BigCompany"},{"name":"Sport Interactiva","category_code":"games_video","founded_year":2007,"country_code":"USA","city":"Philadelphia","latitude":39.951053,"longitude":-75.197465,"number_of_employees":4,"type":"BigCompany"},{"name":"Kapish","category_code":"software","founded_year":2007,"country_code":"AUS","city":"Docklands","latitude":-37.812649,"longitude":144.943656,"number_of_employees":4,"type":"BigCompany"},{"name":"Bars For Us","category_code":"games_video","founded_year":2008,"country_code":"USA","city":"Raleigh","latitude":35.779748,"longitude":-78.643414,"number_of_employees":4,"type":"Startup"},{"name":"Plum Amazing","category_code":"software","founded_year":2008,"country_code":"USA","city":"Princeville","latitude":22.226745,"longitude":-159.480262,"number_of_employees":4,"type":"Startup"},{"name":"Tesaris","category_code":"software","founded_year":2006,"country_code":"USA","city":"Herriman","latitude":40.502908,"longitude":-112.032503,"number_of_employees":4,"type":"BigCompany"},{"name":"Angstro","category_code":"software","founded_year":2007,"country_code":"USA","city":"Palo Alto","latitude":37.444393,"longitude":-122.163139,"number_of_employees":4,"type":"BigCompany"},{"name":"Shastic","category_code":"software","founded_year":2008,"country_code":"USA","city":"Berkeley","latitude":37.8650275,"longitude":-122.2987371,"number_of_employees":4,"type":"Startup"},{"name":"Scripped","category_code":"software","founded_year":2007,"country_code":"USA","city":"San Francisco","latitude":37.7749295,"longitude":-122.4194155,"number_of_employees":4,"type":"BigCompany"},{"name":"Plum Amazing","category_code":"software","founded_year":2008,"country_code":"USA","city":"Princeville","latitude":22.226745,"longitude":-159.480262,"number_of_employees":4,"type":"Startup"},{"name":"Tesaris","category_code":"software","founded_year":2006,"country_code":"USA","city":"Herriman","latitude":40.502908,"longitude":-112.032503,"number_of_employees":4,"type":"BigCompany"},{"name":"Angstro","category_code":"software","founded_year":2007,"country_code":"USA","city":"Palo Alto","latitude":37.444393,"longitude":-122.163139,"number_of_employees":4,"type":"BigCompany"},{"name":"Shastic","category_code":"software","founded_year":2008,"country_code":"USA","city":"Berkeley","latitude":37.8650275,"longitude":-122.2987371,"number_of_employees":4,"type":"Startup"},{"name":"Scripped","category_code":"software","founded_year":2007,"country_code":"USA","city":"San Francisco","latitude":37.7749295,"longitude":-122.4194155,"number_of_employees":4,"type":"BigCompany"},{"name":"MyOwnDB","category_code":"software","founded_year":2007,"country_code":"BEL","city":"Groot-Bijgaarden","latitude":50.871372,"longitude":4.255123,"number_of_employees":4,"type":"BigCompany"},{"name":"MyOwnDB","category_code":"software","founded_year":2007,"country_code":"BEL","city":"Paal","latitude":51.04018,"longitude":5.174641,"number_of_employees":4,"type":"BigCompany"},{"name":"Sceneclips","category_code":"games_video","founded_year":2007,"country_code":"USA","city":"Los Angeles","latitude":34.05438,"longitude":-118.26728,"number_of_employees":4,"type":"BigCompany"},{"name":"Ceboa","category_code":"software","founded_year":2006,"country_code":"USA","city":"Aptos","latitude":36.97441,"longitude":-121.907443,"number_of_employees":4,"type":"BigCompany"},{"name":"Indomite Music","category_code":"games_video","founded_year":2007,"country_code":"USA","city":"Weston","latitude":26.109005,"longitude":-80.4021,"number_of_employees":4,"type":"BigCompany"},{"name":"SLevolution","category_code":"software","founded_year":2007,"country_code":"GBR","city":"London","latitude":51.4598249,"longitude":-0.1364995,"number_of_employees":4,"type":"BigCompany"},{"name":"Oggle Interactive","category_code":"software","founded_year":2008,"country_code":"CAN","city":"Vancouver","latitude":49.2812342,"longitude":-123.1043395,"number_of_employees":4,"type":"Startup"},{"name":"Agily Networks","category_code":"software","founded_year":2006,"country_code":"USA","city":"San Jose","latitude":37.317799,"longitude":-121.947497,"number_of_employees":4,"type":"BigCompany"},{"name":"HyperStrike","category_code":"software","founded_year":2006,"country_code":"USA","city":"Cupertino","latitude":37.322202,"longitude":-122.054115,"number_of_employees":4,"type":"BigCompany"},{"name":"Grapevine Talk","category_code":"software","founded_year":2008,"country_code":"GBR","city":"London","latitude":51.5001524,"longitude":-0.1262362,"number_of_employees":4,"type":"Startup"},{"name":"Krabi ja Mask","category_code":"software","founded_year":2008,"country_code":"EST","city":"Tartu","latitude":58.3820245,"longitude":26.7229199,"number_of_employees":4,"type":"Startup"},{"name":"ServusXchange, LLC","category_code":"software","founded_year":2005,"country_code":"USA","city":"Pompano Beach","latitude":26.2341552,"longitude":-80.1540226,"number_of_employees":4,"type":"BigCompany"},{"name":"Sports Reference","category_code":"games_video","founded_year":2007,"country_code":"USA","city":"Philadelphia","latitude":40.0450165,"longitude":-75.19373,"number_of_employees":4,"type":"BigCompany"},{"name":"Delivered Innovation","category_code":"software","founded_year":2006,"country_code":"USA","city":"Chicago","latitude":42.0077207,"longitude":-87.8240249,"number_of_employees":4,"type":"BigCompany"},{"name":"CreationFlow","category_code":"games_video","founded_year":2007,"country_code":"ARG","city":"Ciudad de Buenos Aires","latitude":-34.6028583,"longitude":-58.4339539,"number_of_employees":4,"type":"BigCompany"},{"name":"Black Ninja Software","category_code":"software","founded_year":2008,"country_code":"CAN","city":"North Vancouver","latitude":49.2792347,"longitude":-123.1172422,"number_of_employees":4,"type":"Startup"},{"name":"PebbleForge","category_code":"software","founded_year":2009,"country_code":"IND","city":"KOCHI, KERALA","latitude":9.9396253,"longitude":76.2594981,"number_of_employees":4,"type":"Startup"},{"name":"OBE Pro","category_code":"software","founded_year":2009,"country_code":"USA","city":"Indian Harbour Beach","latitude":28.1524632,"longitude":-80.5883964,"number_of_employees":4,"type":"Startup"},{"name":"Jresearch Software","category_code":"software","founded_year":2005,"country_code":"CZE","city":"Prague","latitude":50.0526024,"longitude":14.359931,"number_of_employees":4,"type":"BigCompany"},{"name":"Think Orange","category_code":"software","founded_year":2008,"country_code":"PRT","city":"Lisboa","latitude":38.703497,"longitude":-9.178734,"number_of_employees":4,"type":"Startup"},{"name":"Swiffen","category_code":"games_video","founded_year":2008,"country_code":"GBR","city":"London","latitude":51.5163382,"longitude":-0.0828173,"number_of_employees":4,"type":"Startup"},{"name":"Jakun Media","category_code":"games_video","founded_year":2008,"country_code":"DEU","city":"Berlin","latitude":53.5849353,"longitude":10.1251434,"number_of_employees":4,"type":"Startup"},{"name":"Silvatar Media","category_code":"games_video","founded_year":2008,"country_code":"USA","city":"Los Angeles","latitude":34.1036353,"longitude":-118.293316,"number_of_employees":4,"type":"Startup"},{"name":"Tilted Pixel","category_code":"software","founded_year":2005,"country_code":"CAN","city":"Waterloo","latitude":43.4796149,"longitude":-80.5212876,"number_of_employees":4,"type":"BigCompany"},{"name":"Omniscient Technology","category_code":"software","founded_year":2005,"country_code":"CAN","city":"Montreal","latitude":45.545447,"longitude":-73.639076,"number_of_employees":4,"type":"BigCompany"},{"name":"Voon","category_code":"software","founded_year":2004,"country_code":"ARG","city":"Buenos Aires","latitude":-34.611781,"longitude":-58.417309,"number_of_employees":4,"type":"BigCompany"},{"name":"Realius","category_code":"games_video","founded_year":2006,"country_code":"USA","city":"Berkeley","latitude":37.887864,"longitude":-122.26999,"number_of_employees":3,"type":"BigCompany"},{"name":"FilmCrave","category_code":"games_video","founded_year":2007,"country_code":"USA","city":"","latitude":38.977092,"longitude":-94.370901,"number_of_employees":3,"type":"BigCompany"},{"name":"DraftMix","category_code":"games_video","founded_year":2007,"country_code":"USA","city":"Campbell","latitude":37.279132,"longitude":-121.956295,"number_of_employees":3,"type":"BigCompany"},{"name":"Jackson Fish Market","category_code":"software","founded_year":2006,"country_code":"USA","city":"Seattle","latitude":47.6018824,"longitude":-122.3355636,"number_of_employees":3,"type":"BigCompany"},{"name":"littleye","category_code":"software","founded_year":2007,"country_code":"USA","city":"Marina del Rey","latitude":33.971132,"longitude":-118.455798,"number_of_employees":3,"type":"BigCompany"},{"name":"Taltopia","category_code":"games_video","founded_year":2007,"country_code":"USA","city":"Los Angeles","latitude":34.052187,"longitude":-118.243425,"number_of_employees":3,"type":"BigCompany"},{"name":"Litmos","category_code":"software","founded_year":2006,"country_code":"USA","city":"Pleasanton","latitude":-36.831639,"longitude":174.794107,"number_of_employees":3,"type":"BigCompany"},{"name":"Music Arsenal","category_code":"games_video","founded_year":2004,"country_code":"USA","city":"Omaha","latitude":41.241101,"longitude":-96.006819,"number_of_employees":3,"type":"BigCompany"},{"name":"Infovark","category_code":"software","founded_year":2007,"country_code":"USA","city":"Oakton","latitude":38.875724,"longitude":-77.294526,"number_of_employees":3,"type":"BigCompany"},{"name":"FinFolio","category_code":"software","founded_year":2008,"country_code":"USA","city":"Las Vegas","latitude":36.136552,"longitude":-115.154816,"number_of_employees":3,"type":"Startup"},{"name":"Sutros","category_code":"games_video","founded_year":2008,"country_code":"USA","city":"San Francisco","latitude":37.756922,"longitude":-122.42087,"number_of_employees":3,"type":"Startup"},{"name":"FantasyBook","category_code":"games_video","founded_year":2007,"country_code":"USA","city":"Daly City","latitude":37.652325,"longitude":-122.464349,"number_of_employees":3,"type":"BigCompany"},{"name":"itMayBe Media","category_code":"games_video","founded_year":2006,"country_code":"USA","city":"Manville","latitude":40.531199,"longitude":-74.600858,"number_of_employees":3,"type":"BigCompany"},{"name":"Open Television Network","category_code":"games_video","founded_year":2007,"country_code":"USA","city":"Burbank","latitude":34.169493,"longitude":-118.312902,"number_of_employees":3,"type":"BigCompany"},{"name":"Pangaeaa Enterprises","category_code":"games_video","founded_year":2006,"country_code":"USA","city":"Palmetto","latitude":33.553846,"longitude":-84.720134,"number_of_employees":3,"type":"BigCompany"},{"name":"The Television Writers Vault","category_code":"games_video","founded_year":2005,"country_code":"USA","city":"San Diego","latitude":33.228284,"longitude":-116.995957,"number_of_employees":3,"type":"BigCompany"},{"name":"Vitalist","category_code":"software","founded_year":2007,"country_code":"USA","city":"Garland","latitude":32.909188,"longitude":-96.634389,"number_of_employees":3,"type":"BigCompany"},{"name":"Bragosphere","category_code":"games_video","founded_year":2008,"country_code":"USA","city":"Phoenix","latitude":33.64873,"longitude":-112.051346,"number_of_employees":3,"type":"Startup"},{"name":"K12Portal","category_code":"software","founded_year":2007,"country_code":"USA","city":"San Carlos","latitude":37.494965,"longitude":-122.267654,"number_of_employees":3,"type":"BigCompany"},{"name":"Overstream","category_code":"games_video","founded_year":2006,"country_code":"USA","city":"San Francisco","latitude":37.791391,"longitude":-122.402859,"number_of_employees":3,"type":"BigCompany"},{"name":"InThrMa","category_code":"software","founded_year":2007,"country_code":"USA","city":"Oakland","latitude":37.810448,"longitude":-122.239864,"number_of_employees":3,"type":"BigCompany"},{"name":"LenderFlex","category_code":"software","founded_year":2005,"country_code":"USA","city":"Atlanta","latitude":33.75,"longitude":-84.2995,"number_of_employees":3,"type":"BigCompany"},{"name":"Xpree","category_code":"software","founded_year":2007,"country_code":"USA","city":"Redwood City","latitude":37.494561,"longitude":-122.229097,"number_of_employees":3,"type":"BigCompany"},{"name":"ModelSheet Software","category_code":"software","founded_year":2007,"country_code":"USA","city":"Arlington","latitude":42.414167,"longitude":-71.167163,"number_of_employees":3,"type":"BigCompany"},{"name":"Milk-it Software House","category_code":"software","founded_year":2006,"country_code":"BRA","city":"Belo Horizonte","latitude":-19.944326,"longitude":-43.937268,"number_of_employees":3,"type":"BigCompany"},{"name":"Sharendipity","category_code":"software","founded_year":2006,"country_code":"USA","city":"Madison","latitude":43.075114,"longitude":-89.382609,"number_of_employees":3,"type":"BigCompany"},{"name":"Mixed In Key","category_code":"software","founded_year":2006,"country_code":"USA","city":"Rockville","latitude":39.083916,"longitude":-77.156823,"number_of_employees":3,"type":"BigCompany"},{"name":"CropMom","category_code":"software","founded_year":2008,"country_code":"USA","city":"Poway","latitude":32.981201,"longitude":-117.062239,"number_of_employees":3,"type":"Startup"},{"name":"iBit-Lab","category_code":"software","founded_year":2007,"country_code":"USA","city":"Alexandria","latitude":38.813998,"longitude":-77.05856,"number_of_employees":3,"type":"BigCompany"},{"name":"Mixed In Key","category_code":"software","founded_year":2006,"country_code":"USA","city":"Rockville","latitude":39.083916,"longitude":-77.156823,"number_of_employees":3,"type":"BigCompany"},{"name":"CropMom","category_code":"software","founded_year":2008,"country_code":"USA","city":"Poway","latitude":32.981201,"longitude":-117.062239,"number_of_employees":3,"type":"Startup"},{"name":"iBit-Lab","category_code":"software","founded_year":2007,"country_code":"USA","city":"Alexandria","latitude":38.813998,"longitude":-77.05856,"number_of_employees":3,"type":"BigCompany"},{"name":"SoftShell","category_code":"software","founded_year":2006,"country_code":"CAN","city":"London","latitude":42.982515,"longitude":-81.253973,"number_of_employees":3,"type":"BigCompany"},{"name":"telewebber","category_code":"games_video","founded_year":2008,"country_code":"DEU","city":"Bretten","latitude":49.03767,"longitude":8.714079,"number_of_employees":3,"type":"Startup"},{"name":"Computing Data","category_code":"software","founded_year":2007,"country_code":"GBR","city":"Grimsargh Preston","latitude":53.8070285,"longitude":-2.6172859,"number_of_employees":3,"type":"BigCompany"},{"name":"Bandize","category_code":"software","founded_year":2007,"country_code":"USA","city":"Austin","latitude":30.2456728,"longitude":-97.7688358,"number_of_employees":3,"type":"BigCompany"},{"name":"Bandize","category_code":"software","founded_year":2007,"country_code":"USA","city":"San Jose","latitude":37.320052,"longitude":-121.877636,"number_of_employees":3,"type":"BigCompany"},{"name":"Valu Valu","category_code":"games_video","founded_year":2008,"country_code":"USA","city":"Seattle","latitude":47.6254784,"longitude":-122.3564234,"number_of_employees":3,"type":"Startup"},{"name":"Fitnio","category_code":"software","founded_year":2008,"country_code":"USA","city":"San Mateo","latitude":37.5349925,"longitude":-122.3050823,"number_of_employees":3,"type":"Startup"},{"name":"Gemzies","category_code":"games_video","founded_year":2008,"country_code":"NLD","city":"Amsterdam","latitude":52.342938,"longitude":4.8419083,"number_of_employees":3,"type":"Startup"},{"name":"Digital Base","category_code":"software","founded_year":2004,"country_code":"BEL","city":"Leuven","latitude":50.867206,"longitude":4.700737,"number_of_employees":3,"type":"BigCompany"},{"name":"Gawkk","category_code":"games_video","founded_year":2007,"country_code":"USA","city":"New York","latitude":40.778635,"longitude":-73.984438,"number_of_employees":3,"type":"BigCompany"},{"name":"Reachoo","category_code":"software","founded_year":2010,"country_code":"USA","city":"Pompano Beach","latitude":26.2480738,"longitude":-80.135487,"number_of_employees":3,"type":"Startup"},{"name":"Indee","category_code":"games_video","founded_year":2010,"country_code":"USA","city":"San Francisco","latitude":37.8053241,"longitude":-122.4052761,"number_of_employees":3,"type":"Startup"},{"name":"Swyzzle","category_code":"software","founded_year":2006,"country_code":"USA","city":"Alpharetta","latitude":34.0758,"longitude":-84.2956,"number_of_employees":3,"type":"BigCompany"},{"name":"Dog Files","category_code":"games_video","founded_year":2008,"country_code":"USA","city":"Cranford","latitude":40.6569929,"longitude":-74.3059546,"number_of_employees":3,"type":"Startup"},{"name":"C2BII","category_code":"software","founded_year":2006,"country_code":"GRC","city":"Athens","latitude":38.0474497,"longitude":23.8091477,"number_of_employees":3,"type":"BigCompany"},{"name":"Music For Busy People","category_code":"games_video","founded_year":2009,"country_code":"USA","city":"New York City","latitude":40.727763,"longitude":-73.976169,"number_of_employees":3,"type":"Startup"},{"name":"Pick Yours Up","category_code":"software","founded_year":2007,"country_code":"CAN","city":"Ottawa","latitude":45.4160807,"longitude":-75.6968256,"number_of_employees":3,"type":"BigCompany"},{"name":"SwitchGames","category_code":"games_video","founded_year":2008,"country_code":"USA","city":"New York","latitude":40.7297485,"longitude":-73.9867361,"number_of_employees":3,"type":"Startup"},{"name":"Dinsk","category_code":"software","founded_year":2008,"country_code":"USA","city":"Kirkland","latitude":47.723138,"longitude":-122.2090504,"number_of_employees":3,"type":"Startup"},{"name":"BUGBYTE","category_code":"software","founded_year":2005,"country_code":"NLD","city":"Breda","latitude":51.5864572,"longitude":4.7787001,"number_of_employees":3,"type":"BigCompany"},{"name":"Setster","category_code":"software","founded_year":2009,"country_code":"USA","city":"Hollywood","latitude":34.0909811,"longitude":-118.325739,"number_of_employees":3,"type":"Startup"},{"name":"preAmped","category_code":"games_video","founded_year":2007,"country_code":"USA","city":"Orlando","latitude":28.518768,"longitude":-81.141475,"number_of_employees":3,"type":"BigCompany"},{"name":"Mediastroika","category_code":"games_video","founded_year":2008,"country_code":"FRA","city":"Paris","latitude":48.8557544,"longitude":2.3808328,"number_of_employees":3,"type":"Startup"},{"name":"Pixel Vivant","category_code":"software","founded_year":2005,"country_code":"FRA","city":"Saint-Malo","latitude":48.6276289,"longitude":-1.9856858,"number_of_employees":3,"type":"BigCompany"},{"name":"Without Software","category_code":"software","founded_year":2007,"country_code":"CAN","city":"Toronto, ON","latitude":43.6509601,"longitude":-79.3588278,"number_of_employees":3,"type":"BigCompany"},{"name":"Centic","category_code":"software","founded_year":2008,"country_code":"DNK","city":"Odense S","latitude":55.3581088,"longitude":10.3947844,"number_of_employees":3,"type":"Startup"},{"name":"ParableSoft","category_code":"software","founded_year":2007,"country_code":"USA","city":"Tampa","latitude":27.952334,"longitude":-82.4992,"number_of_employees":3,"type":"BigCompany"},{"name":"River Horse","category_code":"games_video","founded_year":2007,"country_code":"GBR","city":"Wollaton (Nottingham)","latitude":52.955042,"longitude":-1.217092,"number_of_employees":3,"type":"BigCompany"},{"name":"Meuzer","category_code":"games_video","founded_year":2009,"country_code":"USA","city":"San Jose","latitude":37.320052,"longitude":-121.877636,"number_of_employees":3,"type":"Startup"},{"name":"Nirvana","category_code":"software","founded_year":2009,"country_code":"CAN","city":"Montreal","latitude":45.5058782,"longitude":-73.5673333,"number_of_employees":3,"type":"Startup"},{"name":"BetKlub","category_code":"games_video","founded_year":2008,"country_code":"FRA","city":"Paris","latitude":48.8787606,"longitude":2.3639174,"number_of_employees":3,"type":"Startup"},{"name":"AgileJ Limited","category_code":"software","founded_year":2006,"country_code":"GBR","city":"Surbiton","latitude":51.393654,"longitude":-0.3062632,"number_of_employees":3,"type":"BigCompany"},{"name":"Picktastic","category_code":"games_video","founded_year":2007,"country_code":"USA","city":null,"latitude":47.680496,"longitude":-122.120938,"number_of_employees":2,"type":"BigCompany"},{"name":"Triptuber","category_code":"games_video","founded_year":2008,"country_code":"QAT","city":"Doha","latitude":25.2948,"longitude":51.5082,"number_of_employees":2,"type":"Startup"},{"name":"JukeFly","category_code":"games_video","founded_year":2007,"country_code":"USA","city":"San Jose","latitude":37.244187,"longitude":-121.9053,"number_of_employees":2,"type":"BigCompany"},{"name":"Compulsivo","category_code":"software","founded_year":2007,"country_code":"USA","city":"Austin","latitude":30.27646,"longitude":-97.746387,"number_of_employees":2,"type":"BigCompany"},{"name":"CineGoGo","category_code":"games_video","founded_year":2008,"country_code":"USA","city":"San Mateo","latitude":37.534317,"longitude":-122.294847,"number_of_employees":2,"type":"Startup"},{"name":"I Heart Movies","category_code":"games_video","founded_year":2007,"country_code":"USA","city":"Midland","latitude":43.626128,"longitude":-84.227415,"number_of_employees":2,"type":"BigCompany"},{"name":"Crootpad","category_code":"games_video","founded_year":2009,"country_code":"USA","city":"West Dundee","latitude":42.091078,"longitude":-88.288749,"number_of_employees":2,"type":"Startup"},{"name":"Coordinatr","category_code":"software","founded_year":2007,"country_code":"USA","city":"San Francisco","latitude":37.804477,"longitude":-122.427021,"number_of_employees":2,"type":"BigCompany"},{"name":"stickychicken","category_code":"games_video","founded_year":2008,"country_code":"USA","city":"San Francisco","latitude":37.775196,"longitude":-122.419204,"number_of_employees":2,"type":"Startup"},{"name":"Zankapfel","category_code":"games_video","founded_year":2007,"country_code":"DEU","city":"Munich","latitude":48.122346,"longitude":11.558864,"number_of_employees":2,"type":"BigCompany"},{"name":"Zogix","category_code":"software","founded_year":2006,"country_code":"GBR","city":"","latitude":51.762918,"longitude":-0.56253,"number_of_employees":2,"type":"BigCompany"},{"name":"Beep Interactive","category_code":"games_video","founded_year":2004,"country_code":"AUS","city":"Melbourne","latitude":-37.814251,"longitude":144.963169,"number_of_employees":2,"type":"BigCompany"},{"name":"FeedFlix","category_code":"games_video","founded_year":2007,"country_code":"USA","city":"Sunnyvale","latitude":37.35351,"longitude":-122.030476,"number_of_employees":2,"type":"BigCompany"},{"name":"Symora Networks","category_code":"software","founded_year":2006,"country_code":"USA","city":"Birmingham","latitude":33.466163,"longitude":-86.832419,"number_of_employees":2,"type":"BigCompany"},{"name":"WhatYah!","category_code":"games_video","founded_year":2006,"country_code":"AUS","city":"Perth","latitude":-41.565586,"longitude":147.196096,"number_of_employees":2,"type":"BigCompany"},{"name":"NativeBroadcast","category_code":"software","founded_year":2005,"country_code":"USA","city":"Brookeville","latitude":39.22093,"longitude":-77.056079,"number_of_employees":2,"type":"BigCompany"},{"name":"Fixie","category_code":"software","founded_year":2007,"country_code":"USA","city":"Seattle","latitude":47.6042792,"longitude":-122.3374372,"number_of_employees":2,"type":"BigCompany"},{"name":"Qovax","category_code":"software","founded_year":2008,"country_code":"USA","city":"Agoura Hills","latitude":34.146149,"longitude":-118.761265,"number_of_employees":2,"type":"Startup"},{"name":"Jootware","category_code":"games_video","founded_year":2007,"country_code":"USA","city":"Seattle","latitude":47.6141,"longitude":-122.33763,"number_of_employees":2,"type":"BigCompany"},{"name":"CodeSense","category_code":"software","founded_year":2007,"country_code":"AUS","city":"Sydney","latitude":-33.629723,"longitude":151.323938,"number_of_employees":2,"type":"BigCompany"},{"name":"Pogostick","category_code":"software","founded_year":2007,"country_code":"USA","city":"Atlanta","latitude":33.841783,"longitude":-84.523571,"number_of_employees":2,"type":"BigCompany"},{"name":"Pogostick","category_code":"software","founded_year":2007,"country_code":"USA","city":"Atlanta","latitude":33.841783,"longitude":-84.523571,"number_of_employees":2,"type":"BigCompany"},{"name":"Mobelux","category_code":"software","founded_year":2008,"country_code":"USA","city":"Richmond","latitude":37.573792,"longitude":-77.37613,"number_of_employees":2,"type":"Startup"},{"name":"Denook","category_code":"games_video","founded_year":2008,"country_code":"USA","city":"Miami","latitude":25.733027,"longitude":-80.432061,"number_of_employees":2,"type":"Startup"},{"name":"Plugola","category_code":"games_video","founded_year":2007,"country_code":"USA","city":"Chicago","latitude":41.907542,"longitude":-87.66299,"number_of_employees":2,"type":"BigCompany"},{"name":"GoalsOnTrack","category_code":"software","founded_year":2008,"country_code":"CAN","city":"Langley","latitude":49.1261967,"longitude":-122.6643702,"number_of_employees":2,"type":"Startup"},{"name":"Kompoz","category_code":"games_video","founded_year":2007,"country_code":"USA","city":"Miami","latitude":25.6482589,"longitude":-80.3399908,"number_of_employees":2,"type":"BigCompany"},{"name":"Book a Lesson","category_code":"games_video","founded_year":2006,"country_code":"USA","city":"Minneapolis","latitude":44.923088,"longitude":-93.34806,"number_of_employees":2,"type":"BigCompany"},{"name":"DrClick","category_code":"software","founded_year":2006,"country_code":"POL","city":"Krak\u00c3\u00b3w","latitude":50.0767915,"longitude":19.9304799,"number_of_employees":2,"type":"BigCompany"},{"name":"Know Your Venue","category_code":"games_video","founded_year":2008,"country_code":"USA","city":"Tampa","latitude":27.98141,"longitude":-82.451141,"number_of_employees":2,"type":"Startup"},{"name":"FilmSuggest","category_code":"games_video","founded_year":2008,"country_code":"USA","city":"Oakland","latitude":37.81098,"longitude":-122.265978,"number_of_employees":2,"type":"Startup"},{"name":"Fotohoo","category_code":"games_video","founded_year":2007,"country_code":"USA","city":"New York","latitude":40.756054,"longitude":-73.986951,"number_of_employees":2,"type":"BigCompany"},{"name":"Fotohoo","category_code":"games_video","founded_year":2007,"country_code":"ESP","city":"Barcelona","latitude":41.387917,"longitude":2.1699187,"number_of_employees":2,"type":"BigCompany"},{"name":"xzapps","category_code":"software","founded_year":2008,"country_code":"USA","city":"Old Bridge","latitude":37.7181398,"longitude":-122.4863492,"number_of_employees":2,"type":"Startup"},{"name":"Remixin","category_code":"games_video","founded_year":2008,"country_code":"USA","city":"Beverly Hills","latitude":34.066118,"longitude":-118.378606,"number_of_employees":2,"type":"Startup"},{"name":"eShark Network","category_code":"software","founded_year":2008,"country_code":"USA","city":"Warminster","latitude":40.197932,"longitude":-75.099101,"number_of_employees":2,"type":"Startup"},{"name":"Beyond NG","category_code":"software","founded_year":2007,"country_code":"AUS","city":"","latitude":-33.916323,"longitude":151.210048,"number_of_employees":2,"type":"BigCompany"},{"name":"Fanurio Time Tracking","category_code":"software","founded_year":2006,"country_code":"NLD","city":"Amstelveen","latitude":52.3121338,"longitude":4.8697724,"number_of_employees":2,"type":"BigCompany"},{"name":"Mapplr","category_code":"software","founded_year":2008,"country_code":"NLD","city":"Amsterdam","latitude":52.3722556,"longitude":4.8864897,"number_of_employees":2,"type":"Startup"},{"name":"EchoCurrent Software","category_code":"software","founded_year":2008,"country_code":"USA","city":"New Boston","latitude":42.942287,"longitude":-71.672268,"number_of_employees":2,"type":"Startup"},{"name":"Blip'd","category_code":"games_video","founded_year":2007,"country_code":"USA","city":"Los Angeles","latitude":34.0760614,"longitude":-118.3729534,"number_of_employees":2,"type":"BigCompany"},{"name":"Visual Avenue","category_code":"games_video","founded_year":2007,"country_code":"USA","city":"Fair Lawn","latitude":40.9416904,"longitude":-74.1260363,"number_of_employees":2,"type":"BigCompany"},{"name":"Excellentia Software","category_code":"software","founded_year":2007,"country_code":"USA","city":"Belen","latitude":34.62779,"longitude":-106.8234016,"number_of_employees":2,"type":"BigCompany"},{"name":"Onthegig","category_code":"software","founded_year":2006,"country_code":"USA","city":"Philadelphia","latitude":39.9493801,"longitude":-75.145782,"number_of_employees":2,"type":"BigCompany"},{"name":"Pixlr","category_code":"software","founded_year":2008,"country_code":"SWE","city":"Stockholm","latitude":59.3327881,"longitude":18.0644881,"number_of_employees":2,"type":"Startup"},{"name":"Funnela","category_code":"software","founded_year":2008,"country_code":"POL","city":"Pozna\u00c5\u201e","latitude":52.298342,"longitude":16.8489579,"number_of_employees":2,"type":"Startup"},{"name":"Fictionaut","category_code":"games_video","founded_year":2008,"country_code":"USA","city":"Astoria","latitude":40.7597951,"longitude":-73.9161267,"number_of_employees":2,"type":"Startup"},{"name":"Fictionaut","category_code":"games_video","founded_year":2008,"country_code":"USA","city":"Houston","latitude":29.735462,"longitude":-95.413243,"number_of_employees":2,"type":"Startup"},{"name":"My TV Shows","category_code":"games_video","founded_year":2007,"country_code":"PRT","city":"Lisbon","latitude":38.7523672,"longitude":-9.1462209,"number_of_employees":2,"type":"BigCompany"},{"name":"Contrastream","category_code":"games_video","founded_year":2007,"country_code":"CAN","city":"Toronto","latitude":43.799511,"longitude":-79.348037,"number_of_employees":1,"type":"BigCompany"},{"name":"Sxoop Technologies","category_code":"software","founded_year":2005,"country_code":"IRL","city":"Cork","latitude":51.8892282,"longitude":-8.5240303,"number_of_employees":1,"type":"BigCompany"},{"name":"Sporting Connections","category_code":"games_video","founded_year":2007,"country_code":"AUS","city":"Maroochydore","latitude":-26.665908,"longitude":153.088303,"number_of_employees":1,"type":"BigCompany"},{"name":"Myplaylist","category_code":"games_video","founded_year":2007,"country_code":"IND","city":"","latitude":20.593684,"longitude":78.96288,"number_of_employees":1,"type":"BigCompany"},{"name":"Open Source Living","category_code":"software","founded_year":2007,"country_code":"GBR","city":"London","latitude":51.500152,"longitude":-0.126236,"number_of_employees":1,"type":"BigCompany"},{"name":"Wordie","category_code":"software","founded_year":2006,"country_code":"USA","city":"Highland Park","latitude":40.493685,"longitude":-74.42896,"number_of_employees":1,"type":"BigCompany"},{"name":"twit+","category_code":"games_video","founded_year":2008,"country_code":"GBR","city":"Corby","latitude":52.472029,"longitude":-0.698361,"number_of_employees":1,"type":"Startup"},{"name":"Ovologic","category_code":"software","founded_year":2008,"country_code":"CAN","city":"Qu\u00c3\u00a9bec","latitude":46.898577,"longitude":-71.20097,"number_of_employees":1,"type":"Startup"},{"name":"Monkey in your Soul","category_code":"software","founded_year":2007,"country_code":"CAN","city":"Toronto","latitude":43.670233,"longitude":-79.386755,"number_of_employees":1,"type":"BigCompany"},{"name":"postica","category_code":"software","founded_year":2007,"country_code":"CAN","city":"Toronto","latitude":43.67736,"longitude":-79.31364,"number_of_employees":1,"type":"BigCompany"},{"name":"Jungle Jam Tv","category_code":"games_video","founded_year":2006,"country_code":"ITA","city":"Bologna","latitude":44.494446,"longitude":11.349231,"number_of_employees":1,"type":"BigCompany"},{"name":"Faneebo","category_code":"games_video","founded_year":2008,"country_code":"USA","city":"Moreno Valley","latitude":33.921969,"longitude":-117.249376,"number_of_employees":1,"type":"Startup"},{"name":"Are You Watching This?!","category_code":"software","founded_year":2006,"country_code":"USA","city":"Austin","latitude":30.292804,"longitude":-97.737368,"number_of_employees":1,"type":"BigCompany"},{"name":"Ninth Yard","category_code":"software","founded_year":2008,"country_code":"USA","city":"Omaha","latitude":30.268735,"longitude":-97.745209,"number_of_employees":1,"type":"Startup"},{"name":"World Wide Talent Search","category_code":"games_video","founded_year":2008,"country_code":"USA","city":"Providence","latitude":41.83,"longitude":-71.41,"number_of_employees":1,"type":"Startup"},{"name":"Sportstation","category_code":"games_video","founded_year":2007,"country_code":"GBR","city":"Amersham","latitude":51.678254,"longitude":-0.572355,"number_of_employees":1,"type":"BigCompany"},{"name":"Zentu","category_code":"software","founded_year":2006,"country_code":"USA","city":"Menlo Park","latitude":37.448491,"longitude":-122.180281,"number_of_employees":1,"type":"BigCompany"},{"name":"Groopi","category_code":"games_video","founded_year":2008,"country_code":"GBR","city":"Newbury","latitude":51.417565,"longitude":-1.313068,"number_of_employees":1,"type":"Startup"},{"name":"twit+","category_code":"games_video","founded_year":2008,"country_code":"GBR","city":"Corby","latitude":52.472029,"longitude":-0.698361,"number_of_employees":1,"type":"Startup"},{"name":"360 Sports Software","category_code":"games_video","founded_year":2007,"country_code":"USA","city":"Levittown","latitude":40.72267,"longitude":-73.518183,"number_of_employees":1,"type":"BigCompany"},{"name":"Groopi","category_code":"games_video","founded_year":2008,"country_code":"GBR","city":"Newbury","latitude":51.417565,"longitude":-1.313068,"number_of_employees":1,"type":"Startup"},{"name":"twit+","category_code":"games_video","founded_year":2008,"country_code":"GBR","city":"Corby","latitude":52.472029,"longitude":-0.698361,"number_of_employees":1,"type":"Startup"},{"name":"360 Sports Software","category_code":"games_video","founded_year":2007,"country_code":"USA","city":"Levittown","latitude":40.72267,"longitude":-73.518183,"number_of_employees":1,"type":"BigCompany"},{"name":"PornLikeThat","category_code":"software","founded_year":2008,"country_code":"CAN","city":"Quebec","latitude":46.812754,"longitude":-71.215223,"number_of_employees":1,"type":"Startup"},{"name":"148Apps","category_code":"software","founded_year":2008,"country_code":"USA","city":"San Francisco","latitude":37.775196,"longitude":-122.419204,"number_of_employees":1,"type":"Startup"},{"name":"Galgal Sytems","category_code":"software","founded_year":2007,"country_code":"USA","city":"Boulder","latitude":40.047299,"longitude":-105.253093,"number_of_employees":1,"type":"BigCompany"},{"name":"Tengaged","category_code":"games_video","founded_year":2010,"country_code":"ESP","city":"Barcelona","latitude":41.4241228,"longitude":2.1634249,"number_of_employees":1,"type":"Startup"},{"name":"FutureTap","category_code":"software","founded_year":2008,"country_code":"DEU","city":"Seefeld","latitude":48.0387806,"longitude":11.1974291,"number_of_employees":1,"type":"Startup"},{"name":"Implied Solutions","category_code":"software","founded_year":2008,"country_code":"USA","city":"Seattle","latitude":47.6042663,"longitude":-122.3328401,"number_of_employees":1,"type":"Startup"},{"name":"Jobvue","category_code":"games_video","founded_year":2008,"country_code":"USA","city":"Copley","latitude":41.1208235,"longitude":-81.6643523,"number_of_employees":1,"type":"Startup"},{"name":"Electronic Media Publishing","category_code":"software","founded_year":2007,"country_code":"USA","city":"St. Louis","latitude":38.570681,"longitude":-90.490704,"number_of_employees":1,"type":"BigCompany"},{"name":"kinDragon","category_code":"software","founded_year":2010,"country_code":"USA","city":"Sarasota","latitude":27.4081935,"longitude":-82.5294065,"number_of_employees":1,"type":"Startup"},{"name":"Wine by the Bar","category_code":"software","founded_year":2008,"country_code":"USA","city":"Cary","latitude":35.820177,"longitude":-78.792841,"number_of_employees":1,"type":"Startup"},{"name":"Scrobl","category_code":"software","founded_year":2008,"country_code":"UKR","city":"Kiev","latitude":50.453629,"longitude":30.503828,"number_of_employees":1,"type":"Startup"},{"name":"crush tweet","category_code":"software","founded_year":2009,"country_code":"USA","city":"dallas","latitude":32.920073,"longitude":-96.740444,"number_of_employees":1,"type":"Startup"},{"name":"Knag Enterprises","category_code":"software","founded_year":2008,"country_code":"USA","city":"Boulder","latitude":40.013336,"longitude":-105.270527,"number_of_employees":1,"type":"Startup"},{"name":"Gameleaper","category_code":"games_video","founded_year":2009,"country_code":"USA","city":"Dallas","latitude":32.8270045,"longitude":-96.8432224,"number_of_employees":1,"type":"Startup"},{"name":"Hayen Company","category_code":"games_video","founded_year":2011,"country_code":"USA","city":"Columbia","latitude":34.019114,"longitude":-81.004871,"number_of_employees":1,"type":"Startup"},{"name":"Book'd","category_code":"software","founded_year":2009,"country_code":"USA","city":"Columbia","latitude":38.9569894,"longitude":-92.3227556,"number_of_employees":1,"type":"Startup"},{"name":"Multiso Multimedia Solutions","category_code":"games_video","founded_year":2008,"country_code":"SVN","city":"Celje","latitude":46.2347396,"longitude":15.2591055,"number_of_employees":1,"type":"Startup"},{"name":"Joost","category_code":"games_video","founded_year":2006,"country_code":"USA","city":"New York","latitude":40.7464969,"longitude":-74.0094471,"number_of_employees":0,"type":"BigCompany"},{"name":"YouTube","category_code":"games_video","founded_year":2005,"country_code":"USA","city":"San Bruno","latitude":37.627971,"longitude":-122.426804,"number_of_employees":0,"type":"BigCompany"},{"name":"CastTV","category_code":"games_video","founded_year":2006,"country_code":"USA","city":"San Francisco","latitude":37.780716,"longitude":-122.393913,"number_of_employees":0,"type":"BigCompany"},{"name":"Attributor","category_code":"software","founded_year":2005,"country_code":"USA","city":"San Mateo","latitude":37.453687,"longitude":-122.228595,"number_of_employees":0,"type":"BigCompany"},{"name":"MediaPops","category_code":"games_video","founded_year":2007,"country_code":"USA","city":"Seattle","latitude":47.611012,"longitude":-122.333523,"number_of_employees":0,"type":"BigCompany"},{"name":"Xobni","category_code":"software","founded_year":2006,"country_code":"USA","city":"San Francisco","latitude":37.789634,"longitude":-122.404052,"number_of_employees":0,"type":"BigCompany"},{"name":"EkkoTV","category_code":"games_video","founded_year":2006,"country_code":"USA","city":"Sunnyvale","latitude":37.369195,"longitude":-122.036849,"number_of_employees":0,"type":"BigCompany"},{"name":"Newsclipper","category_code":"games_video","founded_year":2008,"country_code":"USA","city":"","latitude":37.269175,"longitude":-119.306607,"number_of_employees":0,"type":"Startup"},{"name":"MetaSieve","category_code":"software","founded_year":2008,"country_code":"DEU","city":"Bochum","latitude":51.4453516,"longitude":7.25795,"number_of_employees":0,"type":"Startup"},{"name":"Why Hasn't He?","category_code":"games_video","founded_year":2008,"country_code":"USA","city":"New York City","latitude":40.7703479,"longitude":-73.9914834,"number_of_employees":0,"type":"Startup"},{"name":"Paydro","category_code":"software","founded_year":2008,"country_code":"NLD","city":"Amsterdam","latitude":52.3646031,"longitude":4.8926966,"number_of_employees":0,"type":"Startup"}]