[{"category_code":"software","founded_year":2004,"name":"UCWeb","number_of_employees":1700.0,"country":"CHN","city":"Guangzhou","lat":23.1337544,"long":113.3853308,"type":"BigCompany"},{"category_code":"software","founded_year":2006,"name":"Veeam Software","number_of_employees":1500.0,"country":"USA","city":"Columbus","lat":40.088052,"long":-83.088566,"type":"BigCompany"},{"category_code":"software","founded_year":2006,"name":"HubSpot","number_of_employees":650.0,"country":"USA","city":"Cambridge","lat":42.375392,"long":-71.118487,"type":"BigCompany"},{"category_code":"games_video","founded_year":2006,"name":"Kabam","number_of_employees":650.0,"country":"USA","city":"San Francisco","lat":37.3944561,"long":-122.0785314,"type":"BigCompany"},{"category_code":"software","founded_year":2005,"name":"Bazaarvoice","number_of_employees":600.0,"country":"USA","city":"Austin","lat":30.407545,"long":-97.717667,"type":"BigCompany"},{"category_code":"software","founded_year":2007,"name":"Veeva","number_of_employees":510.0,"country":"USA","city":"Pleasanton","lat":37.69249,"long":-121.900722,"type":"BigCompany"},{"category_code":"software","founded_year":2007,"name":"Zendesk","number_of_employees":400.0,"country":"USA","city":"San Francisco","lat":55.676294,"long":12.568116,"type":"BigCompany"},{"category_code":"software","founded_year":2007,"name":"Dropbox","number_of_employees":350.0,"country":"USA","city":"San Francisco","lat":37.7909427,"long":-122.4084994,"type":"BigCompany"},{"category_code":"games_video","founded_year":2004,"name":"SPIL GAMES","number_of_employees":300.0,"country":"NLD","city":"Hilversum","lat":52.220726,"long":5.198824,"type":"BigCompany"},{"category_code":"software","founded_year":2004,"name":"Evernote","number_of_employees":280.0,"country":"USA","city":"Redwood City","lat":37.386774,"long":-121.987661,"type":"BigCompany"},{"category_code":"software","founded_year":2006,"name":"Marketo","number_of_employees":260.0,"country":"USA","city":"San Mateo","lat":37.5583,"long":-122.301385,"type":"BigCompany"},{"category_code":"games_video","founded_year":2007,"name":"Ustream","number_of_employees":250.0,"country":"USA","city":"San Francisco","lat":37.392936,"long":-122.07948,"type":"BigCompany"},{"category_code":"software","founded_year":2004,"name":"Kareo","number_of_employees":250.0,"country":"USA","city":"Irvine","lat":33.676444,"long":-117.8587,"type":"BigCompany"},{"category_code":"software","founded_year":2007,"name":"Zuora","number_of_employees":250.0,"country":"USA","city":"Foster City","lat":37.5596277,"long":-122.2709868,"type":"BigCompany"},{"category_code":"software","founded_year":2006,"name":"Tiempo Development","number_of_employees":230.0,"country":"USA","city":"Tempe","lat":33.4298452,"long":-111.9387842,"type":"BigCompany"},{"category_code":"software","founded_year":2005,"name":"WSO2","number_of_employees":228.0,"country":"USA","city":"Palo Alto","lat":37.390918,"long":-122.080843,"type":"BigCompany"},{"category_code":"software","founded_year":2005,"name":"Nexenta Systems","number_of_employees":200.0,"country":"USA","city":"Santa Clara","lat":37.444098,"long":-122.161287,"type":"BigCompany"},{"category_code":"software","founded_year":2005,"name":"Tekriti Software","number_of_employees":200.0,"country":"IND","city":"Gurgaon","lat":28.435018,"long":77.003186,"type":"BigCompany"},{"category_code":"software","founded_year":2004,"name":"Rigel Networks","number_of_employees":200.0,"country":"USA","city":"Newport Beach","lat":33.660955,"long":-117.867679,"type":"BigCompany"},{"category_code":"games_video","founded_year":2004,"name":"Unity Technologies","number_of_employees":200.0,"country":"USA","city":"San Francisco","lat":55.6924605,"long":12.530107,"type":"BigCompany"},{"category_code":"software","founded_year":2007,"name":"Lyft","number_of_employees":180.0,"country":"USA","city":"San Francisco","lat":37.7899027,"long":-122.4007846,"type":"BigCompany"},{"category_code":"software","founded_year":2007,"name":"Lyft","number_of_employees":180.0,"country":"USA","city":"San Francisco","lat":37.7899027,"long":-122.4007846,"type":"BigCompany"},{"category_code":"software","founded_year":2007,"name":"Vocalocity","number_of_employees":175.0,"country":"USA","city":"Atlanta","lat":33.7812614,"long":-84.3675617,"type":"BigCompany"},{"category_code":"software","founded_year":2005,"name":"WANdisco","number_of_employees":175.0,"country":"USA","city":"San Ramon","lat":37.769205,"long":-121.966395,"type":"BigCompany"},{"category_code":"software","founded_year":2004,"name":"Quantum Secure","number_of_employees":160.0,"country":"USA","city":"San Jose","lat":37.367838,"long":-121.915594,"type":"BigCompany"},{"category_code":"games_video","founded_year":2007,"name":"hulu","number_of_employees":153.0,"country":"USA","city":"Los Angeles","lat":34.031276,"long":-118.456806,"type":"BigCompany"},{"category_code":"games_video","founded_year":2008,"name":"ngmoco","number_of_employees":150.0,"country":"USA","city":"San Francisco","lat":37.7705096,"long":-122.4015807,"type":"BigCompany"},{"category_code":"games_video","founded_year":2005,"name":"i-Jet Media","number_of_employees":150.0,"country":"USA","city":"Sunnyvale","lat":37.384239,"long":-122.012475,"type":"BigCompany"},{"category_code":"games_video","founded_year":2009,"name":"Z2Live","number_of_employees":130.0,"country":"USA","city":"Seattle","lat":47.6103008,"long":-122.3399782,"type":"BigCompany"},{"category_code":"software","founded_year":2004,"name":"Velocify","number_of_employees":125.0,"country":"USA","city":"El Segundo","lat":33.9192583,"long":-118.3952969,"type":"BigCompany"},{"category_code":"games_video","founded_year":2007,"name":"Modern Feed","number_of_employees":123.0,"country":"USA","city":"Los Angeles","lat":34.085749,"long":-118.343791,"type":"BigCompany"},{"category_code":"games_video","founded_year":2007,"name":"Livestream","number_of_employees":120.0,"country":"USA","city":"New York","lat":40.726155,"long":-73.995625,"type":"BigCompany"},{"category_code":"software","founded_year":2006,"name":"spigit","number_of_employees":120.0,"country":"USA","city":"Pleasanton","lat":37.6637279,"long":-121.8731805,"type":"BigCompany"},{"category_code":"software","founded_year":2007,"name":"uTest","number_of_employees":120.0,"country":"USA","city":"Framingham","lat":42.288291,"long":-71.52679,"type":"BigCompany"},{"category_code":"software","founded_year":2004,"name":"Avature","number_of_employees":120.0,"country":"USA","city":"New York","lat":40.706271,"long":-74.009242,"type":"BigCompany"},{"category_code":"software","founded_year":2010,"name":"Integrate","number_of_employees":120.0,"country":"USA","city":"Scottsdale","lat":40.7481039,"long":-74.0353787,"type":"BigCompany"},{"category_code":"software","founded_year":2010,"name":"Integrate","number_of_employees":120.0,"country":"USA","city":"Scottsdale","lat":40.7481039,"long":-74.0353787,"type":"BigCompany"},{"category_code":"games_video","founded_year":2007,"name":"Zynga","number_of_employees":115.0,"country":"USA","city":"San Francisco","lat":37.765158,"long":-122.404234,"type":"BigCompany"},{"category_code":"software","founded_year":2005,"name":"Clarizen","number_of_employees":110.0,"country":"USA","city":"San Mateo","lat":37.536044,"long":-122.328401,"type":"BigCompany"},{"category_code":"software","founded_year":2008,"name":"MapVersa","number_of_employees":110.0,"country":"USA","city":"San Diego","lat":32.902266,"long":-117.20834,"type":"BigCompany"},{"category_code":"software","founded_year":2009,"name":"Prezi","number_of_employees":110.0,"country":"HUN","city":"Budapest","lat":47.490346,"long":19.059078,"type":"BigCompany"},{"category_code":"software","founded_year":2007,"name":"Nalini Networks","number_of_employees":110.0,"country":"IND","city":"Bangalore","lat":35.2675117,"long":139.1870746,"type":"BigCompany"},{"category_code":"software","founded_year":2007,"name":"Basho Technologies","number_of_employees":110.0,"country":"USA","city":"Cambridge","lat":42.365867,"long":-71.092285,"type":"BigCompany"},{"category_code":"games_video","founded_year":2005,"name":"RockYou","number_of_employees":106.0,"country":"USA","city":"Redwood City","lat":37.484619,"long":-122.206893,"type":"BigCompany"},{"category_code":"software","founded_year":2008,"name":"GitHub","number_of_employees":106.0,"country":"USA","city":"San Francisco","lat":37.775196,"long":-122.419204,"type":"BigCompany"},{"category_code":"software","founded_year":2004,"name":"Pontis","number_of_employees":105.0,"country":"ISR","city":"Ra\u2019anana","lat":32.1980455,"long":34.8824253,"type":"BigCompany"},{"category_code":"software","founded_year":2007,"name":"Jama Software","number_of_employees":103.0,"country":"USA","city":"Portland","lat":45.5309644,"long":-122.68038,"type":"BigCompany"},{"category_code":"games_video","founded_year":2005,"name":"mig33","number_of_employees":100.0,"country":"SGP","city":"Singapore","lat":37.580304,"long":-122.343679,"type":"BigCompany"},{"category_code":"games_video","founded_year":2011,"name":"Social Gaming Network","number_of_employees":100.0,"country":"USA","city":"Los Angeles","lat":37.446823,"long":-122.161523,"type":"BigCompany"},{"category_code":"software","founded_year":2006,"name":"Cartedge","number_of_employees":100.0,"country":"USA","city":"Midvale","lat":40.622919,"long":-111.900917,"type":"BigCompany"},{"category_code":"software","founded_year":2006,"name":"Making Sense","number_of_employees":100.0,"country":"USA","city":"San Antonio","lat":29.516352,"long":-98.43676,"type":"BigCompany"},{"category_code":"games_video","founded_year":2006,"name":"VBS TV","number_of_employees":100.0,"country":"USA","city":"Brooklyn","lat":40.720764,"long":-73.957968,"type":"BigCompany"},{"category_code":"software","founded_year":2005,"name":"Open-Xchange","number_of_employees":100.0,"country":"USA","city":"Tarrytown","lat":41.0662835,"long":-73.8625452,"type":"BigCompany"},{"category_code":"software","founded_year":2004,"name":"QualSoft Services","number_of_employees":100.0,"country":"USA","city":"Woodmere","lat":40.632734,"long":-73.720916,"type":"BigCompany"},{"category_code":"software","founded_year":2006,"name":"NearSoft Europe","number_of_employees":100.0,"country":"CHE","city":"Zurich","lat":47.3799427,"long":8.5436847,"type":"BigCompany"},{"category_code":"software","founded_year":2006,"name":"Openbravo","number_of_employees":100.0,"country":"ESP","city":"Barcelona","lat":41.3935324,"long":2.1660785,"type":"BigCompany"},{"category_code":"software","founded_year":2005,"name":"EffectiveUI","number_of_employees":97.0,"country":"USA","city":"Denver","lat":39.755152,"long":-104.990968,"type":"BigCompany"},{"category_code":"software","founded_year":2006,"name":"Zmags","number_of_employees":95.0,"country":"DNK","city":"Copenhagen","lat":55.6839208,"long":12.571492,"type":"BigCompany"},{"category_code":"software","founded_year":2005,"name":"Ifbyphone","number_of_employees":90.0,"country":"USA","city":"Chicago","lat":42.040851,"long":-87.750643,"type":"BigCompany"},{"category_code":"software","founded_year":2004,"name":"Medio","number_of_employees":90.0,"country":"USA","city":"Seattle","lat":47.611827,"long":-122.331308,"type":"BigCompany"},{"category_code":"software","founded_year":2005,"name":"Adlucent","number_of_employees":85.0,"country":"USA","city":"Austin","lat":30.316226,"long":-97.71813,"type":"BigCompany"},{"category_code":"software","founded_year":2006,"name":"ReverbNation","number_of_employees":85.0,"country":"USA","city":"Durham","lat":36.002893,"long":-78.904075,"type":"BigCompany"},{"category_code":"software","founded_year":2004,"name":"Baynote","number_of_employees":80.0,"country":"USA","city":"San Jose","lat":37.332271,"long":-122.006539,"type":"BigCompany"},{"category_code":"software","founded_year":2012,"name":"Navara","number_of_employees":80.0,"country":"NLD","city":"Maarssen","lat":52.126616,"long":5.038078,"type":"BigCompany"},{"category_code":"software","founded_year":2007,"name":"PrestaShop","number_of_employees":80.0,"country":"FRA","city":"Levallois-Perret","lat":48.8687217,"long":2.3593849,"type":"BigCompany"},{"category_code":"software","founded_year":2004,"name":"Navatar Group","number_of_employees":80.0,"country":"USA","city":"New York","lat":40.733242,"long":-73.991877,"type":"BigCompany"},{"category_code":"software","founded_year":2008,"name":"Engagement Systems","number_of_employees":80.0,"country":"USA","city":"Kansas City","lat":39.156427,"long":-94.483334,"type":"BigCompany"},{"category_code":"software","founded_year":2004,"name":"Boardwalktech","number_of_employees":75.0,"country":"USA","city":"Palo Alto","lat":37.431941,"long":-122.103076,"type":"BigCompany"},{"category_code":"software","founded_year":2007,"name":"Clearleap","number_of_employees":75.0,"country":"USA","city":"Duluth","lat":34.070164,"long":-84.058708,"type":"BigCompany"},{"category_code":"software","founded_year":2006,"name":"itEANz","number_of_employees":75.0,"country":"IND","city":"Bangalore","lat":12.9332419,"long":77.6295577,"type":"BigCompany"},{"category_code":"games_video","founded_year":2004,"name":"[212]Media","number_of_employees":75.0,"country":"USA","city":"New York","lat":40.743877,"long":-73.98618,"type":"BigCompany"},{"category_code":"software","founded_year":2005,"name":"Phreesia","number_of_employees":70.0,"country":"USA","city":"New York","lat":40.739794,"long":-73.985878,"type":"BigCompany"},{"category_code":"games_video","founded_year":2008,"name":"YUPPTV","number_of_employees":70.0,"country":"USA","city":"Alpharetta","lat":17.415429,"long":78.434422,"type":"BigCompany"},{"category_code":"software","founded_year":2006,"name":"Spotmau Corporation","number_of_employees":70.0,"country":"USA","city":"Humble","lat":29.985528,"long":-95.3082988,"type":"BigCompany"},{"category_code":"software","founded_year":2006,"name":"Spotmau Corporation","number_of_employees":70.0,"country":"USA","city":"Humble","lat":29.985528,"long":-95.3082988,"type":"BigCompany"},{"category_code":"games_video","founded_year":2007,"name":"Meteor Games","number_of_employees":70.0,"country":"USA","city":"Beverly Hills","lat":34.09316,"long":-118.378335,"type":"BigCompany"},{"category_code":"software","founded_year":2007,"name":"ZeroTurnaround","number_of_employees":70.0,"country":"USA","city":"Tartu","lat":58.3820542,"long":26.731054,"type":"BigCompany"},{"category_code":"games_video","founded_year":2006,"name":"sevenload","number_of_employees":67.0,"country":"DEU","city":"Cologne","lat":50.945289,"long":6.921546,"type":"BigCompany"},{"category_code":"software","founded_year":2006,"name":"Brainware","number_of_employees":65.0,"country":"USA","city":"Ashburn","lat":39.0601,"long":-77.464018,"type":"BigCompany"},{"category_code":"games_video","founded_year":2005,"name":"StreamTheWorld","number_of_employees":65.0,"country":"CAN","city":"Montr\u00c3\u00a9al","lat":45.4961227,"long":-73.5767499,"type":"BigCompany"},{"category_code":"software","founded_year":2006,"name":"FireScope","number_of_employees":65.0,"country":"USA","city":"Huntington Beach","lat":33.664705,"long":-118.012553,"type":"BigCompany"},{"category_code":"software","founded_year":2008,"name":"New Relic","number_of_employees":63.0,"country":"USA","city":"San Francisco","lat":37.269175,"long":-119.306607,"type":"BigCompany"},{"category_code":"software","founded_year":2005,"name":"Halosys","number_of_employees":62.0,"country":"USA","city":"Santa Clara","lat":37.3858901,"long":-121.9708095,"type":"BigCompany"},{"category_code":"software","founded_year":2005,"name":"Bunchball","number_of_employees":60.0,"country":"USA","city":"Redwood City","lat":37.3208403,"long":-121.9479223,"type":"BigCompany"},{"category_code":"software","founded_year":2007,"name":"Perfect Market","number_of_employees":60.0,"country":"USA","city":"Pasadena","lat":34.146436,"long":-118.153136,"type":"BigCompany"},{"category_code":"software","founded_year":2005,"name":"Collabor","number_of_employees":60.0,"country":"USA","city":"Marlborough","lat":42.3389044,"long":-71.590103,"type":"BigCompany"},{"category_code":"software","founded_year":2006,"name":"Targetprocess","number_of_employees":60.0,"country":"USA","city":"Corning","lat":42.979367,"long":-78.798947,"type":"BigCompany"},{"category_code":"software","founded_year":2008,"name":"AssureSign","number_of_employees":60.0,"country":"USA","city":"Altamonte Springs","lat":28.672321,"long":-81.384939,"type":"BigCompany"},{"category_code":"software","founded_year":2005,"name":"Velneo","number_of_employees":60.0,"country":"ESP","city":"Vigo","lat":42.1638716,"long":-8.6105703,"type":"BigCompany"},{"category_code":"games_video","founded_year":2005,"name":"Geewa","number_of_employees":60.0,"country":"CZE","city":"Prague 8","lat":50.0938491,"long":14.4505336,"type":"BigCompany"},{"category_code":"software","founded_year":2005,"name":"Across Systems","number_of_employees":60.0,"country":"USA","city":"Glendale","lat":34.1527593,"long":-118.2551,"type":"BigCompany"},{"category_code":"games_video","founded_year":2008,"name":"SCVNGR","number_of_employees":60.0,"country":"USA","city":"Boston","lat":42.3406534,"long":-71.0680027,"type":"BigCompany"},{"category_code":"software","founded_year":2007,"name":"Adeptol","number_of_employees":60.0,"country":"USA","city":"Santa Clara","lat":37.381341,"long":-121.977065,"type":"BigCompany"},{"category_code":"games_video","founded_year":2006,"name":"Curse","number_of_employees":58.0,"country":"USA","city":"San Francisco","lat":37.787092,"long":-122.399972,"type":"BigCompany"},{"category_code":"software","founded_year":2005,"name":"Smart Online","number_of_employees":52.0,"country":"USA","city":"Durham","lat":35.8772527,"long":-78.8392427,"type":"BigCompany"},{"category_code":"software","founded_year":2004,"name":"SparkBase","number_of_employees":51.0,"country":"USA","city":"Cleveland","lat":41.513652,"long":-81.666101,"type":"BigCompany"},{"category_code":"games_video","founded_year":2006,"name":"OMGPOP","number_of_employees":50.0,"country":"USA","city":"New York","lat":40.723384,"long":-74.001704,"type":"BigCompany"},{"category_code":"games_video","founded_year":2008,"name":"Crunchyroll","number_of_employees":50.0,"country":"USA","city":"San Francisco","lat":37.781265,"long":-122.393229,"type":"BigCompany"},{"category_code":"software","founded_year":2004,"name":"Athena Archiver","number_of_employees":50.0,"country":"USA","city":"New York","lat":40.747003,"long":-73.991562,"type":"BigCompany"},{"category_code":"software","founded_year":2004,"name":"Univa UD","number_of_employees":50.0,"country":"USA","city":"Lisle","lat":41.808458,"long":-88.073008,"type":"BigCompany"},{"category_code":"software","founded_year":2006,"name":"Zigron","number_of_employees":50.0,"country":"USA","city":"Alexandria","lat":37.796164,"long":-122.420903,"type":"BigCompany"},{"category_code":"software","founded_year":2006,"name":"MakeUseOf","number_of_employees":50.0,"country":"GBR","city":"Glasgow","lat":55.862878,"long":-4.271165,"type":"BigCompany"},{"category_code":"software","founded_year":2006,"name":"Votigo","number_of_employees":50.0,"country":"USA","city":"Boulder","lat":37.8919079,"long":-122.1192743,"type":"BigCompany"},{"category_code":"software","founded_year":2004,"name":"Likewise Software","number_of_employees":50.0,"country":"USA","city":"Bellevue","lat":47.582658,"long":-122.135282,"type":"BigCompany"},{"category_code":"software","founded_year":2005,"name":"Atigeo","number_of_employees":50.0,"country":"USA","city":"Bellevue","lat":47.6174533,"long":-122.2016685,"type":"BigCompany"},{"category_code":"software","founded_year":2005,"name":"UBmatrix","number_of_employees":50.0,"country":"USA","city":"Redwood City","lat":37.522281,"long":-122.258139,"type":"BigCompany"},{"category_code":"software","founded_year":2004,"name":"Likewise Software","number_of_employees":50.0,"country":"USA","city":"Bellevue","lat":47.582658,"long":-122.135282,"type":"BigCompany"},{"category_code":"software","founded_year":2005,"name":"Atigeo","number_of_employees":50.0,"country":"USA","city":"Bellevue","lat":47.6174533,"long":-122.2016685,"type":"BigCompany"},{"category_code":"software","founded_year":2005,"name":"UBmatrix","number_of_employees":50.0,"country":"USA","city":"Redwood City","lat":37.522281,"long":-122.258139,"type":"BigCompany"},{"category_code":"software","founded_year":2007,"name":"Pardot","number_of_employees":50.0,"country":"USA","city":"Atlanta","lat":33.84662,"long":-84.3565171,"type":"BigCompany"},{"category_code":"software","founded_year":2006,"name":"ViaCube","number_of_employees":50.0,"country":"USA","city":"Atlanta","lat":33.754487,"long":-84.389663,"type":"BigCompany"},{"category_code":"software","founded_year":2007,"name":"Sysomos","number_of_employees":50.0,"country":"CAN","city":"Toronto","lat":43.65508,"long":-79.3979364,"type":"BigCompany"},{"category_code":"software","founded_year":2004,"name":"Alachisoft","number_of_employees":50.0,"country":"USA","city":"San Ramon","lat":37.770657,"long":-121.963321,"type":"BigCompany"},{"category_code":"software","founded_year":2007,"name":"Ginger Software","number_of_employees":50.0,"country":"USA","city":"Lexington","lat":42.4352222,"long":-71.2344601,"type":"BigCompany"},{"category_code":"software","founded_year":2009,"name":"AppZero","number_of_employees":50.0,"country":"USA","city":"Andover","lat":42.6751888,"long":-71.1469003,"type":"BigCompany"},{"category_code":"software","founded_year":2008,"name":"IGLOO Software","number_of_employees":50.0,"country":"CAN","city":"Kitchener","lat":43.4496954,"long":-80.487328,"type":"BigCompany"},{"category_code":"software","founded_year":2005,"name":"Infobright","number_of_employees":50.0,"country":"CAN","city":"Toronto, Ontario","lat":43.6490631,"long":-79.3749698,"type":"BigCompany"},{"category_code":"software","founded_year":2008,"name":"Testplant","number_of_employees":50.0,"country":"GBR","city":"London","lat":51.517356,"long":-0.1037742,"type":"BigCompany"},{"category_code":"software","founded_year":2007,"name":"ALOT","number_of_employees":50.0,"country":"USA","city":"New York","lat":40.72616,"long":-74.006023,"type":"BigCompany"},{"category_code":"games_video","founded_year":2006,"name":"38 Studios","number_of_employees":49.0,"country":"USA","city":"Maynard","lat":42.431652,"long":-71.455658,"type":"BigCompany"},{"category_code":"software","founded_year":2006,"name":"SurveyGizmo","number_of_employees":47.0,"country":"USA","city":"Boulder","lat":40.031015,"long":-105.227764,"type":"BigCompany"},{"category_code":"software","founded_year":2004,"name":"Aveksa","number_of_employees":46.0,"country":"USA","city":"Waltham","lat":42.3988661,"long":-71.253781,"type":"BigCompany"},{"category_code":"games_video","founded_year":2005,"name":"Zattoo","number_of_employees":45.0,"country":"USA","city":"Ann Arbor","lat":42.292649,"long":-83.734673,"type":"BigCompany"},{"category_code":"software","founded_year":2004,"name":"Boxee","number_of_employees":45.0,"country":"ISR","city":"Tel Aviv","lat":32.0554,"long":34.7595,"type":"BigCompany"},{"category_code":"software","founded_year":2004,"name":"Ratchet","number_of_employees":45.0,"country":"USA","city":"Minneapolis","lat":44.989126,"long":-93.278663,"type":"BigCompany"},{"category_code":"software","founded_year":2006,"name":"Virtual Bridges","number_of_employees":45.0,"country":"USA","city":"Austin","lat":30.27995,"long":-97.807274,"type":"BigCompany"},{"category_code":"software","founded_year":2008,"name":"Optify","number_of_employees":45.0,"country":"USA","city":"Seattle","lat":47.603364,"long":-122.333359,"type":"Startup"},{"category_code":"games_video","founded_year":2007,"name":"Busca Corp","number_of_employees":45.0,"country":"USA","city":"La Jolla","lat":32.841791,"long":-117.274602,"type":"BigCompany"},{"category_code":"games_video","founded_year":2009,"name":"Tiny Speck","number_of_employees":45.0,"country":"CAN","city":"Vancouver","lat":49.2824551,"long":-123.109217,"type":"Startup"},{"category_code":"software","founded_year":2006,"name":"Maas Global Solutions Corporation","number_of_employees":43.0,"country":"USA","city":"Las Vegas","lat":36.1211955,"long":-115.2429972,"type":"BigCompany"},{"category_code":"software","founded_year":2008,"name":"Double Encore","number_of_employees":42.0,"country":"USA","city":"Denver","lat":39.69263,"long":-104.955012,"type":"Startup"},{"category_code":"software","founded_year":2008,"name":"StarWind Software","number_of_employees":42.0,"country":"USA","city":"Burlington","lat":42.487232,"long":-71.204372,"type":"Startup"},{"category_code":"software","founded_year":2007,"name":"SpaBooker","number_of_employees":42.0,"country":"USA","city":"New York","lat":40.738567,"long":-73.987199,"type":"BigCompany"},{"category_code":"games_video","founded_year":2006,"name":"Kyte","number_of_employees":40.0,"country":"USA","city":"San Francisco","lat":37.788482,"long":-122.409173,"type":"BigCompany"},{"category_code":"software","founded_year":2008,"name":"GoingOn","number_of_employees":40.0,"country":"USA","city":"San Francisco","lat":37.782263,"long":-122.392142,"type":"Startup"},{"category_code":"software","founded_year":2006,"name":"eYeka","number_of_employees":40.0,"country":"FRA","city":"Paris","lat":48.856667,"long":2.350987,"type":"BigCompany"},{"category_code":"software","founded_year":2005,"name":"H-care","number_of_employees":40.0,"country":"ITA","city":"Motebelluna","lat":45.564237,"long":12.428383,"type":"BigCompany"},{"category_code":"software","founded_year":2004,"name":"Pivot","number_of_employees":40.0,"country":"USA","city":"Cambridge","lat":42.364367,"long":-71.078978,"type":"BigCompany"},{"category_code":"software","founded_year":2005,"name":"Zenoss","number_of_employees":40.0,"country":"USA","city":"Annapolis","lat":38.97639,"long":-76.503171,"type":"BigCompany"},{"category_code":"software","founded_year":2005,"name":"CrestaTech","number_of_employees":40.0,"country":"USA","city":"Santa Clara","lat":37.383368,"long":-121.980186,"type":"BigCompany"},{"category_code":"software","founded_year":2005,"name":"ITBrix","number_of_employees":40.0,"country":"USA","city":"Colorado Springs","lat":38.919042,"long":-104.789289,"type":"BigCompany"},{"category_code":"software","founded_year":2006,"name":"Sentrigo","number_of_employees":40.0,"country":"USA","city":"Santa Clara","lat":37.55911,"long":-122.303493,"type":"BigCompany"},{"category_code":"software","founded_year":2004,"name":"ControlCase","number_of_employees":40.0,"country":"USA","city":"McLean","lat":38.911907,"long":-77.215776,"type":"BigCompany"},{"category_code":"games_video","founded_year":2005,"name":"Owlient","number_of_employees":40.0,"country":"FRA","city":"Paris","lat":48.8308091,"long":2.3032201,"type":"BigCompany"},{"category_code":"software","founded_year":2005,"name":"illuminate Solutions","number_of_employees":40.0,"country":"USA","city":"Minneapolis","lat":44.8559566,"long":-93.3555637,"type":"BigCompany"},{"category_code":"software","founded_year":2008,"name":"Servo Software","number_of_employees":40.0,"country":"USA","city":"San Mateo","lat":37.552262,"long":-122.292146,"type":"Startup"},{"category_code":"games_video","founded_year":2007,"name":"Yoostar","number_of_employees":40.0,"country":"USA","city":"New York","lat":40.756054,"long":-73.986951,"type":"BigCompany"},{"category_code":"software","founded_year":2009,"name":"The Resumator","number_of_employees":40.0,"country":"USA","city":"Pittsburgh","lat":40.438423,"long":-80.001933,"type":"Startup"},{"category_code":"software","founded_year":2006,"name":"4Home","number_of_employees":36.0,"country":"USA","city":"Sunnyvale","lat":37.385225,"long":-121.991912,"type":"BigCompany"},{"category_code":"software","founded_year":2004,"name":"Corebridge","number_of_employees":36.0,"country":"GBR","city":"London","lat":51.5051974,"long":-0.1457395,"type":"BigCompany"},{"category_code":"games_video","founded_year":2008,"name":"Jinni","number_of_employees":35.0,"country":"ISR","city":"Tel Aviv","lat":32.0554,"long":34.7595,"type":"Startup"},{"category_code":"games_video","founded_year":2007,"name":"Sometrics","number_of_employees":35.0,"country":"USA","city":"El Segundo","lat":34.048857,"long":-118.251343,"type":"BigCompany"},{"category_code":"games_video","founded_year":2007,"name":"Openfilm","number_of_employees":35.0,"country":"USA","city":"Miami","lat":25.887462,"long":-80.166155,"type":"BigCompany"},{"category_code":"software","founded_year":2005,"name":"Goober Networks","number_of_employees":35.0,"country":"USA","city":"Dover","lat":39.096465,"long":-75.533034,"type":"BigCompany"},{"category_code":"software","founded_year":2006,"name":"Banashri Creatives","number_of_employees":35.0,"country":"IND","city":"Bangalore","lat":12.956128,"long":77.592264,"type":"BigCompany"},{"category_code":"software","founded_year":2008,"name":"Visuamobile","number_of_employees":35.0,"country":"FRA","city":"Paris","lat":48.8691369,"long":2.3602202,"type":"Startup"},{"category_code":"software","founded_year":2007,"name":"RankAbove","number_of_employees":35.0,"country":"ISR","city":"Tel Aviv","lat":32.0695889,"long":34.7836788,"type":"BigCompany"},{"category_code":"software","founded_year":2007,"name":"expressor software","number_of_employees":35.0,"country":"USA","city":"Burlington","lat":42.485102,"long":-71.211568,"type":"BigCompany"},{"category_code":"software","founded_year":2004,"name":"Rhxo Technology Group","number_of_employees":35.0,"country":"USA","city":"New York","lat":40.762897,"long":-73.974714,"type":"BigCompany"},{"category_code":"software","founded_year":2005,"name":"Aria Networks","number_of_employees":35.0,"country":"GBR","city":"Chippenham","lat":51.4515283,"long":-2.1334555,"type":"BigCompany"},{"category_code":"software","founded_year":2006,"name":"KnowledgeTree","number_of_employees":33.0,"country":"USA","city":"Raleigh","lat":35.786975,"long":-78.647003,"type":"BigCompany"},{"category_code":"software","founded_year":2006,"name":"Vidoop","number_of_employees":30.0,"country":"USA","city":"Portland","lat":45.5241278,"long":-122.675448,"type":"BigCompany"},{"category_code":"games_video","founded_year":2006,"name":"FlowPlay","number_of_employees":30.0,"country":"USA","city":"Seattle","lat":47.6015315,"long":-122.335943,"type":"BigCompany"},{"category_code":"games_video","founded_year":2006,"name":"Scrabulous","number_of_employees":30.0,"country":"IND","city":"Kolkata","lat":22.572646,"long":88.363895,"type":"BigCompany"},{"category_code":"games_video","founded_year":2004,"name":"2threads","number_of_employees":30.0,"country":"AUS","city":"sydney","lat":-33.884685,"long":151.216427,"type":"BigCompany"},{"category_code":"software","founded_year":2004,"name":"Replay Solutions","number_of_employees":30.0,"country":"USA","city":"Redwood City","lat":37.512318,"long":-122.200914,"type":"BigCompany"},{"category_code":"games_video","founded_year":2005,"name":"Cellufun","number_of_employees":30.0,"country":"USA","city":"New York","lat":40.73993,"long":-73.9930489,"type":"BigCompany"},{"category_code":"games_video","founded_year":2007,"name":"eRepublik","number_of_employees":30.0,"country":"ESP","city":"Madrid","lat":40.43094,"long":-3.6952896,"type":"BigCompany"},{"category_code":"software","founded_year":2004,"name":"Austhink Software","number_of_employees":30.0,"country":"AUS","city":"Melbourne, Victoria","lat":-37.813603,"long":144.96616,"type":"BigCompany"},{"category_code":"software","founded_year":2006,"name":"Keibi Technologies","number_of_employees":30.0,"country":"USA","city":"San Francisco","lat":37.787646,"long":-122.402759,"type":"BigCompany"},{"category_code":"software","founded_year":2010,"name":"JumpForward","number_of_employees":30.0,"country":"USA","city":"Chicago","lat":41.857204,"long":-87.623923,"type":"Startup"},{"category_code":"software","founded_year":2006,"name":"DocVerify","number_of_employees":30.0,"country":"USA","city":"Irvine","lat":33.661515,"long":-117.821661,"type":"BigCompany"},{"category_code":"software","founded_year":2006,"name":"BetterLabs","number_of_employees":30.0,"country":"USA","city":"San Jose","lat":37.324803,"long":-121.771853,"type":"BigCompany"},{"category_code":"software","founded_year":2008,"name":"Samfind","number_of_employees":30.0,"country":"USA","city":"Los Angeles","lat":34.052107,"long":-118.385271,"type":"Startup"},{"category_code":"software","founded_year":2005,"name":"LiveHive Systems","number_of_employees":30.0,"country":"CAN","city":"Waterloo","lat":43.474686,"long":-80.521246,"type":"BigCompany"},{"category_code":"software","founded_year":2008,"name":"SocialTwist","number_of_employees":30.0,"country":"USA","city":"Mountain View","lat":37.355275,"long":-122.014791,"type":"Startup"},{"category_code":"software","founded_year":2004,"name":"ApogeeInvent","number_of_employees":30.0,"country":"USA","city":"American Falls","lat":43.825874,"long":-111.780958,"type":"BigCompany"},{"category_code":"software","founded_year":2005,"name":"Remal IT","number_of_employees":30.0,"country":"SAU","city":"Dammam","lat":26.272541,"long":50.21028,"type":"BigCompany"},{"category_code":"software","founded_year":2005,"name":"Brickfish","number_of_employees":30.0,"country":"USA","city":"Chicago","lat":41.8851542,"long":-87.6223183,"type":"BigCompany"},{"category_code":"software","founded_year":2011,"name":"Unison Technologies","number_of_employees":30.0,"country":"USA","city":"New York","lat":40.7645772,"long":-73.9799007,"type":"Startup"},{"category_code":"software","founded_year":2006,"name":"iScripts","number_of_employees":30.0,"country":"USA","city":"Deerfield","lat":42.1652513,"long":-87.9215314,"type":"BigCompany"},{"category_code":"software","founded_year":2004,"name":"MAG STUDIOS","number_of_employees":30.0,"country":"IND","city":"Delhi","lat":28.635308,"long":77.22496,"type":"BigCompany"},{"category_code":"games_video","founded_year":2005,"name":"The Escapist","number_of_employees":30.0,"country":"USA","city":"Durham","lat":35.911733,"long":-78.900103,"type":"BigCompany"},{"category_code":"software","founded_year":2007,"name":"Trackset","number_of_employees":30.0,"country":"ITA","city":"Pisa","lat":43.7161354,"long":10.3965843,"type":"BigCompany"},{"category_code":"games_video","founded_year":2007,"name":"FacebookLicious!","number_of_employees":30.0,"country":"USA","city":"Bear","lat":39.612223,"long":-75.696706,"type":"BigCompany"},{"category_code":"games_video","founded_year":2007,"name":"Mytopia","number_of_employees":29.0,"country":"USA","city":"Palo Alto","lat":34.007967,"long":-118.489681,"type":"BigCompany"},{"category_code":"software","founded_year":2008,"name":"AdJuggler","number_of_employees":27.0,"country":"USA","city":"Alexandria","lat":38.804559,"long":-77.164776,"type":"Startup"},{"category_code":"software","founded_year":2008,"name":"Zapproved","number_of_employees":27.0,"country":"USA","city":"Portland","lat":45.5251,"long":-122.8097,"type":"Startup"},{"category_code":"games_video","founded_year":2008,"name":"Yaika","number_of_employees":26.0,"country":"EST","city":"Tallinn","lat":59.437214,"long":24.768664,"type":"Startup"},{"category_code":"games_video","founded_year":2004,"name":"Preview Networks","number_of_employees":26.0,"country":"DNK","city":"Copenhagen","lat":55.6659813,"long":12.5800751,"type":"BigCompany"},{"category_code":"software","founded_year":2006,"name":"ASPgems","number_of_employees":26.0,"country":"ESP","city":"Madrid","lat":40.4165967,"long":-3.6992667,"type":"BigCompany"},{"category_code":"games_video","founded_year":2006,"name":"Aniboom","number_of_employees":25.0,"country":"ISR","city":null,"lat":31.046051,"long":34.851612,"type":"BigCompany"},{"category_code":"games_video","founded_year":2005,"name":"MocoSpace","number_of_employees":25.0,"country":"USA","city":"Boston","lat":42.350274,"long":-71.058768,"type":"BigCompany"},{"category_code":"games_video","founded_year":2005,"name":"Fliqz","number_of_employees":25.0,"country":"USA","city":"Emeryville","lat":37.848641,"long":-122.289498,"type":"BigCompany"},{"category_code":"software","founded_year":2008,"name":"OpenDrive","number_of_employees":25.0,"country":"USA","city":"Palo Alto","lat":37.794043,"long":-122.39736,"type":"Startup"},{"category_code":"software","founded_year":2005,"name":"O3Spaces","number_of_employees":25.0,"country":"NLD","city":"Gouda","lat":52.0259843,"long":4.6805473,"type":"BigCompany"},{"category_code":"software","founded_year":2005,"name":"Rollstream","number_of_employees":25.0,"country":"USA","city":"McLean","lat":38.872668,"long":-77.367981,"type":"BigCompany"},{"category_code":"software","founded_year":2008,"name":"Analytix On Demand","number_of_employees":25.0,"country":"USA","city":"Irvine","lat":33.67983,"long":-117.839046,"type":"Startup"},{"category_code":"games_video","founded_year":2010,"name":"BASH Gaming","number_of_employees":25.0,"country":"USA","city":"Fremont","lat":37.5561712,"long":-122.0780632,"type":"Startup"},{"category_code":"software","founded_year":2005,"name":"ThirdFrameStudios","number_of_employees":25.0,"country":"SVN","city":"Kranj","lat":46.2272708,"long":14.3611417,"type":"BigCompany"},{"category_code":"software","founded_year":2007,"name":"Spiral16","number_of_employees":25.0,"country":"USA","city":"Overland Park","lat":38.929582,"long":-94.660375,"type":"BigCompany"},{"category_code":"games_video","founded_year":2006,"name":"Saavn","number_of_employees":25.0,"country":"USA","city":"New York","lat":40.743877,"long":-73.98618,"type":"BigCompany"},{"category_code":"games_video","founded_year":2004,"name":"Pando Networks","number_of_employees":23.0,"country":"USA","city":"New York","lat":40.722655,"long":-73.99873,"type":"BigCompany"},{"category_code":"software","founded_year":2005,"name":"semanticlabs","number_of_employees":23.0,"country":"AUT","city":"Vienna","lat":48.202758,"long":16.354637,"type":"BigCompany"},{"category_code":"software","founded_year":2006,"name":"Stratogon Entertainment","number_of_employees":23.0,"country":"USA","city":"Plantation","lat":26.1026788,"long":-80.2501145,"type":"BigCompany"},{"category_code":"software","founded_year":2008,"name":"UserVoice","number_of_employees":22.0,"country":"USA","city":"San Francisco","lat":36.9751032,"long":-122.0253784,"type":"Startup"},{"category_code":"games_video","founded_year":2008,"name":"Serious Business","number_of_employees":22.0,"country":"USA","city":"San Francisco","lat":37.7893215,"long":-122.4013624,"type":"Startup"},{"category_code":"games_video","founded_year":2008,"name":"Tweegee","number_of_employees":22.0,"country":"ISR","city":"Ramat Gan","lat":32.037363,"long":34.8003705,"type":"Startup"},{"category_code":"games_video","founded_year":2008,"name":"Tweegee","number_of_employees":22.0,"country":"ISR","city":"Ramat Gan","lat":32.037363,"long":34.8003705,"type":"Startup"},{"category_code":"software","founded_year":2008,"name":"Viridity Software","number_of_employees":22.0,"country":"USA","city":"Burlington","lat":42.4871509,"long":-71.1986329,"type":"Startup"},{"category_code":"software","founded_year":2004,"name":"Personal Estate Manager","number_of_employees":22.0,"country":"USA","city":"Shelby Township","lat":42.6031277,"long":-83.0294402,"type":"BigCompany"},{"category_code":"games_video","founded_year":2005,"name":"Vuze","number_of_employees":20.0,"country":"USA","city":"San Mateo","lat":37.4858654,"long":-122.2262606,"type":"BigCompany"},{"category_code":"games_video","founded_year":2005,"name":"BuddyTV","number_of_employees":20.0,"country":"USA","city":"Seattle","lat":47.61968,"long":-122.356756,"type":"BigCompany"},{"category_code":"games_video","founded_year":2006,"name":"Kongregate","number_of_employees":20.0,"country":"USA","city":"San Francisco","lat":37.786942,"long":-122.401245,"type":"BigCompany"},{"category_code":"software","founded_year":2006,"name":"Movaya","number_of_employees":20.0,"country":"USA","city":"Seattle","lat":47.66274,"long":-122.300863,"type":"BigCompany"},{"category_code":"software","founded_year":2007,"name":"HRSnap! Corporation","number_of_employees":20.0,"country":"USA","city":"Las Vegas","lat":36.180757,"long":-115.242203,"type":"BigCompany"},{"category_code":"software","founded_year":2007,"name":"Protecode","number_of_employees":20.0,"country":"CAN","city":"Ottawa","lat":45.352255,"long":-75.834151,"type":"BigCompany"},{"category_code":"games_video","founded_year":2007,"name":"MUBI","number_of_employees":20.0,"country":"USA","city":"Palo Alto","lat":37.44236,"long":-122.161025,"type":"BigCompany"},{"category_code":"software","founded_year":2004,"name":"PhaseWare","number_of_employees":20.0,"country":"USA","city":"McKinney","lat":33.17514,"long":-96.662494,"type":"BigCompany"},{"category_code":"software","founded_year":2007,"name":"Friend2Friend","number_of_employees":20.0,"country":"USA","city":"Palo Alto","lat":37.445739,"long":-122.161284,"type":"BigCompany"},{"category_code":"software","founded_year":2006,"name":"BrandDoozie","number_of_employees":20.0,"country":"USA","city":"Irvine","lat":33.647105,"long":-117.73424,"type":"BigCompany"},{"category_code":"software","founded_year":2008,"name":"Manam Infotech","number_of_employees":20.0,"country":"IND","city":"Bangalore","lat":12.975531,"long":77.653739,"type":"Startup"},{"category_code":"software","founded_year":2006,"name":"CohesiveFT","number_of_employees":20.0,"country":"USA","city":"Chicago","lat":41.882401,"long":-87.637816,"type":"BigCompany"},{"category_code":"software","founded_year":2009,"name":"BitRock","number_of_employees":20.0,"country":"USA","city":"Alameda","lat":37.78424,"long":-122.274771,"type":"Startup"},{"category_code":"software","founded_year":2008,"name":"EventElephant","number_of_employees":20.0,"country":"GBR","city":"Richmond","lat":53.335194,"long":-6.252923,"type":"Startup"},{"category_code":"software","founded_year":2007,"name":"CakeMail","number_of_employees":20.0,"country":"CAN","city":"Montreal, QC","lat":45.475206,"long":-73.580782,"type":"BigCompany"},{"category_code":"software","founded_year":2008,"name":"Pongr","number_of_employees":20.0,"country":"USA","city":"Boston","lat":41.587539,"long":-93.625499,"type":"Startup"},{"category_code":"software","founded_year":2004,"name":"Sonar6","number_of_employees":20.0,"country":"NZL","city":"Auckland","lat":-36.8527748,"long":174.756168,"type":"BigCompany"},{"category_code":"software","founded_year":2006,"name":"OrcaTec","number_of_employees":20.0,"country":"USA","city":"Atlanta","lat":45.538651,"long":-75.815542,"type":"BigCompany"},{"category_code":"software","founded_year":2007,"name":"CaptainU","number_of_employees":20.0,"country":"USA","city":"San Francisco","lat":41.7894201,"long":-87.5962319,"type":"BigCompany"},{"category_code":"software","founded_year":2005,"name":"Enough Software","number_of_employees":20.0,"country":"DEU","city":"Bremen","lat":53.0785928,"long":8.8088823,"type":"BigCompany"},{"category_code":"software","founded_year":2004,"name":"ascentify","number_of_employees":20.0,"country":"CAN","city":"Ottawa","lat":45.3479463,"long":-75.9200142,"type":"BigCompany"},{"category_code":"software","founded_year":2007,"name":"VODECLIC","number_of_employees":20.0,"country":"FRA","city":"Levallois-Perret","lat":48.891986,"long":2.319287,"type":"BigCompany"},{"category_code":"software","founded_year":2006,"name":"Hook Mobile","number_of_employees":20.0,"country":"USA","city":"Vienna","lat":38.917237,"long":-77.232657,"type":"BigCompany"},{"category_code":"software","founded_year":2007,"name":"BrowserObject","number_of_employees":20.0,"country":"USA","city":"Brandenton","lat":27.445135,"long":-82.485057,"type":"BigCompany"},{"category_code":"software","founded_year":2008,"name":"RJMetrics","number_of_employees":20.0,"country":"USA","city":"Philadelphia","lat":39.9443552,"long":-75.1257381,"type":"Startup"},{"category_code":"software","founded_year":2005,"name":"Appulate","number_of_employees":20.0,"country":"USA","city":"Agoura Hills","lat":34.142874,"long":-118.7445257,"type":"BigCompany"},{"category_code":"software","founded_year":2006,"name":"SysTools Software","number_of_employees":20.0,"country":"USA","city":"Eden Prairie","lat":44.864782,"long":-93.401984,"type":"BigCompany"},{"category_code":"games_video","founded_year":2007,"name":"Panfu","number_of_employees":20.0,"country":"DEU","city":"Berlin","lat":52.5283111,"long":13.4120986,"type":"BigCompany"},{"category_code":"software","founded_year":2009,"name":"GameChanger Media","number_of_employees":20.0,"country":"USA","city":"New York","lat":40.7078343,"long":-74.0136605,"type":"Startup"},{"category_code":"software","founded_year":2008,"name":"HariOmTechnologies","number_of_employees":20.0,"country":"IND","city":"Bhopal","lat":23.2771102,"long":77.4589032,"type":"Startup"},{"category_code":"software","founded_year":2005,"name":"iPOTT Softech India Private Limited","number_of_employees":20.0,"country":"IND","city":"Bangalore","lat":12.9959332,"long":77.6102811,"type":"BigCompany"},{"category_code":"software","founded_year":2004,"name":"Diamantea","number_of_employees":20.0,"country":"ITA","city":"","lat":37.5186215,"long":15.0916839,"type":"BigCompany"},{"category_code":"software","founded_year":2009,"name":"Tiverias Apps","number_of_employees":20.0,"country":"USA","city":"Cambridge","lat":42.3672873,"long":-71.0814466,"type":"Startup"},{"category_code":"software","founded_year":2007,"name":"Siri","number_of_employees":19.0,"country":"USA","city":"San Jose","lat":37.320052,"long":-121.877636,"type":"BigCompany"},{"category_code":"software","founded_year":2008,"name":"espor","number_of_employees":19.0,"country":"USA","city":"Denver","lat":39.3926188,"long":-104.8943767,"type":"Startup"},{"category_code":"software","founded_year":2006,"name":"Tsheets","number_of_employees":18.0,"country":"USA","city":"Eagle","lat":43.6124,"long":-116.3908,"type":"BigCompany"},{"category_code":"software","founded_year":2004,"name":"Skalfa","number_of_employees":18.0,"country":"USA","city":"South Bend","lat":41.601645,"long":-86.27604,"type":"BigCompany"},{"category_code":"games_video","founded_year":2010,"name":"Titan Gaming","number_of_employees":18.0,"country":"USA","city":"Santa Monica","lat":53.544711,"long":-113.515769,"type":"Startup"},{"category_code":"software","founded_year":2006,"name":"Filemobile","number_of_employees":18.0,"country":"CAN","city":"Toronto","lat":43.63559,"long":-79.424625,"type":"BigCompany"},{"category_code":"software","founded_year":2006,"name":"Artefact","number_of_employees":18.0,"country":"USA","city":"Seattle","lat":47.611718,"long":-122.345874,"type":"BigCompany"},{"category_code":"software","founded_year":2008,"name":"Tivix","number_of_employees":18.0,"country":"USA","city":"San Francisco","lat":37.792303,"long":-122.423132,"type":"Startup"},{"category_code":"games_video","founded_year":2007,"name":"ScanDigital","number_of_employees":17.0,"country":"USA","city":"Torrance","lat":33.918151,"long":-118.41747,"type":"BigCompany"},{"category_code":"games_video","founded_year":2006,"name":"CareerTours","number_of_employees":17.0,"country":"USA","city":"Scottsdale","lat":33.465063,"long":-111.926112,"type":"BigCompany"},{"category_code":"software","founded_year":2008,"name":"Planzone","number_of_employees":17.0,"country":"FRA","city":"cedex","lat":49.5332371,"long":2.1346593,"type":"Startup"},{"category_code":"software","founded_year":2007,"name":"Krimson","number_of_employees":17.0,"country":"BEL","city":"Antwerp","lat":51.2013419,"long":4.4292519,"type":"BigCompany"},{"category_code":"software","founded_year":2007,"name":"iPharro Media","number_of_employees":17.0,"country":"DEU","city":"Darmstadt","lat":49.8740096,"long":8.6605881,"type":"BigCompany"},{"category_code":"software","founded_year":2006,"name":"Bumblehood","number_of_employees":17.0,"country":"DEU","city":"Munich","lat":48.1319712,"long":11.5696891,"type":"BigCompany"},{"category_code":"games_video","founded_year":2008,"name":"Clipta","number_of_employees":16.0,"country":"USA","city":"Sunnyvale","lat":37.3793718,"long":-122.0124404,"type":"Startup"},{"category_code":"software","founded_year":2004,"name":"FMYI","number_of_employees":16.0,"country":"USA","city":"Portland","lat":45.5349042,"long":-122.6687628,"type":"BigCompany"},{"category_code":"software","founded_year":2004,"name":"FMYI","number_of_employees":16.0,"country":"USA","city":"Portland","lat":45.5349042,"long":-122.6687628,"type":"BigCompany"},{"category_code":"software","founded_year":2004,"name":"PayCommerce","number_of_employees":16.0,"country":"USA","city":"Piscataway","lat":40.55007,"long":-74.456689,"type":"BigCompany"},{"category_code":"games_video","founded_year":2006,"name":"Spoonfed","number_of_employees":16.0,"country":"GBR","city":"London","lat":51.7577453,"long":-1.2186724,"type":"BigCompany"},{"category_code":"games_video","founded_year":2007,"name":"AdaptiveBlue","number_of_employees":15.0,"country":"USA","city":"NYC","lat":40.801358,"long":-74.3372,"type":"BigCompany"},{"category_code":"games_video","founded_year":2006,"name":"Veodia","number_of_employees":15.0,"country":"USA","city":"San Mateo","lat":37.553743,"long":-122.300246,"type":"BigCompany"},{"category_code":"software","founded_year":2007,"name":"Roost","number_of_employees":15.0,"country":"USA","city":"San Francisco","lat":37.7891288,"long":-122.4020276,"type":"BigCompany"},{"category_code":"software","founded_year":2004,"name":"Mirror42","number_of_employees":15.0,"country":"NLD","city":"Amsterdam","lat":52.36702,"long":4.896468,"type":"BigCompany"},{"category_code":"games_video","founded_year":2005,"name":"Medioh!","number_of_employees":15.0,"country":"USA","city":"Boulder","lat":40.016582,"long":-105.253601,"type":"BigCompany"},{"category_code":"software","founded_year":2006,"name":"Porvus","number_of_employees":15.0,"country":"USA","city":"Sunnyvale","lat":37.372509,"long":-122.038205,"type":"BigCompany"},{"category_code":"games_video","founded_year":2005,"name":"LyricFind","number_of_employees":15.0,"country":"CAN","city":"Toronto","lat":43.7123092,"long":-79.3995384,"type":"BigCompany"},{"category_code":"software","founded_year":2006,"name":"Flimp Media","number_of_employees":15.0,"country":"USA","city":"Hopkinton","lat":42.228946,"long":-71.51888,"type":"BigCompany"},{"category_code":"software","founded_year":2005,"name":"Transinsight","number_of_employees":15.0,"country":"DEU","city":"Dresden","lat":51.055992,"long":13.776354,"type":"BigCompany"},{"category_code":"software","founded_year":2007,"name":"Comindwork","number_of_employees":15.0,"country":"UKR","city":"Kiev","lat":50.474832,"long":30.680651,"type":"BigCompany"},{"category_code":"games_video","founded_year":2004,"name":"Endavo Media and Communications","number_of_employees":15.0,"country":"USA","city":"Atlanta","lat":33.8317964,"long":-84.3391231,"type":"BigCompany"},{"category_code":"games_video","founded_year":2006,"name":"GotGame","number_of_employees":15.0,"country":"USA","city":"San Francisco","lat":37.77772,"long":-122.395785,"type":"BigCompany"},{"category_code":"software","founded_year":2008,"name":"Aghreni Technologies","number_of_employees":15.0,"country":"IND","city":"Bangalore","lat":12.9561278,"long":77.5922642,"type":"Startup"},{"category_code":"software","founded_year":2008,"name":"Aligned Global","number_of_employees":15.0,"country":"USA","city":"Miami","lat":25.769174,"long":-80.331681,"type":"Startup"},{"category_code":"software","founded_year":2005,"name":"BAK2u","number_of_employees":15.0,"country":"SGP","city":"Singapore","lat":1.297079,"long":103.8557638,"type":"BigCompany"},{"category_code":"software","founded_year":2006,"name":"Paden Noble Consulting","number_of_employees":15.0,"country":"USA","city":"Newark","lat":40.742416,"long":-74.182118,"type":"BigCompany"},{"category_code":"games_video","founded_year":2007,"name":"Drum Channel","number_of_employees":15.0,"country":"USA","city":"Oxnard","lat":34.210099,"long":-119.12636,"type":"BigCompany"},{"category_code":"software","founded_year":2008,"name":"CodeLean","number_of_employees":15.0,"country":"DNK","city":"Bagsvaerd","lat":55.7680455,"long":12.437582,"type":"Startup"},{"category_code":"software","founded_year":2004,"name":"Transcensus","number_of_employees":15.0,"country":"USA","city":"Orem","lat":40.311946,"long":-111.6850207,"type":"BigCompany"},{"category_code":"software","founded_year":2005,"name":"Monarch Teaching Technologies","number_of_employees":15.0,"country":"USA","city":"Shaker Heights","lat":41.4865099,"long":-81.5257116,"type":"BigCompany"},{"category_code":"software","founded_year":2008,"name":"ProtoShare","number_of_employees":15.0,"country":"USA","city":"Portland","lat":45.519475,"long":-122.675255,"type":"Startup"},{"category_code":"games_video","founded_year":2007,"name":"Vae Victis","number_of_employees":15.0,"country":"ITA","city":"Cesena","lat":44.1480034,"long":12.2091265,"type":"BigCompany"},{"category_code":"software","founded_year":2007,"name":"Virtuosant Technology","number_of_employees":15.0,"country":"USA","city":"Ringgold","lat":34.9790168,"long":-85.0957662,"type":"BigCompany"},{"category_code":"software","founded_year":2008,"name":"HomePros","number_of_employees":15.0,"country":"USA","city":"Austin","lat":30.43385,"long":-97.739316,"type":"Startup"},{"category_code":"software","founded_year":2007,"name":"KeyVision","number_of_employees":14.0,"country":"ITA","city":"Monza (MI)","lat":45.587212,"long":9.285378,"type":"BigCompany"},{"category_code":"software","founded_year":2007,"name":"Olark","number_of_employees":14.0,"country":"USA","city":"Palo Alto","lat":37.400465,"long":-122.073003,"type":"BigCompany"},{"category_code":"software","founded_year":2007,"name":"Wuala","number_of_employees":14.0,"country":"CHE","city":"Zurich","lat":47.384199,"long":8.492452,"type":"BigCompany"},{"category_code":"software","founded_year":2006,"name":"Application Experts","number_of_employees":14.0,"country":"USA","city":"Broomfield","lat":39.930354,"long":-105.092218,"type":"BigCompany"},{"category_code":"software","founded_year":2006,"name":"Application Experts","number_of_employees":14.0,"country":"USA","city":"Broomfield","lat":39.930354,"long":-105.092218,"type":"BigCompany"},{"category_code":"software","founded_year":2008,"name":"Mobiata","number_of_employees":14.0,"country":"USA","city":"Ann Arbor","lat":42.277416,"long":-83.733276,"type":"Startup"},{"category_code":"software","founded_year":2006,"name":"Neustep","number_of_employees":14.0,"country":"USA","city":"Chicago","lat":41.5911112,"long":-87.342177,"type":"BigCompany"},{"category_code":"software","founded_year":2007,"name":"Nirvaha","number_of_employees":14.0,"country":"USA","city":"Bellevue","lat":47.6008008,"long":-122.3342585,"type":"BigCompany"},{"category_code":"games_video","founded_year":2007,"name":"MeFeedia","number_of_employees":13.0,"country":"USA","city":"Burbank","lat":34.155869,"long":-118.335292,"type":"BigCompany"},{"category_code":"software","founded_year":2006,"name":"AtelMedia","number_of_employees":13.0,"country":"ESP","city":"Madrid","lat":40.416741,"long":-3.70325,"type":"BigCompany"},{"category_code":"software","founded_year":2005,"name":"Intelligenes","number_of_employees":13.0,"country":"PAK","city":"Karachi","lat":24.9068278,"long":67.0806218,"type":"BigCompany"},{"category_code":"software","founded_year":2005,"name":"Intelligenes","number_of_employees":13.0,"country":"PAK","city":"Karachi","lat":24.9068278,"long":67.0806218,"type":"BigCompany"},{"category_code":"software","founded_year":2008,"name":"Vengeo","number_of_employees":13.0,"country":"CAN","city":"Toronto","lat":43.678782,"long":-79.439315,"type":"Startup"},{"category_code":"software","founded_year":2007,"name":"Kynetx","number_of_employees":13.0,"country":"USA","city":"Lehi","lat":40.4273613,"long":-111.8967224,"type":"BigCompany"},{"category_code":"software","founded_year":2008,"name":"Ceylon Solutions","number_of_employees":13.0,"country":"USA","city":"Denver","lat":39.62574,"long":-105.092372,"type":"Startup"},{"category_code":"software","founded_year":2005,"name":"Gloto","number_of_employees":13.0,"country":"USA","city":"Fulton","lat":39.1481859,"long":-76.9061739,"type":"BigCompany"},{"category_code":"games_video","founded_year":2009,"name":"scoyo","number_of_employees":13.0,"country":"DEU","city":"Hamburg","lat":53.5622698,"long":9.9490139,"type":"Startup"},{"category_code":"games_video","founded_year":2006,"name":"Metaplace","number_of_employees":12.0,"country":"USA","city":"Solana Beach","lat":33.020832,"long":-117.077311,"type":"BigCompany"},{"category_code":"games_video","founded_year":2008,"name":"WonderHowTo","number_of_employees":12.0,"country":"USA","city":"Santa Monica","lat":34.031764,"long":-118.461884,"type":"Startup"},{"category_code":"software","founded_year":2008,"name":"Woopra","number_of_employees":12.0,"country":"USA","city":"San Francisco","lat":31.169036,"long":-100.076888,"type":"Startup"},{"category_code":"software","founded_year":2008,"name":"FragMob","number_of_employees":12.0,"country":"USA","city":"San Diego","lat":34.063441,"long":-118.36543,"type":"Startup"},{"category_code":"software","founded_year":2004,"name":"Mercury Intermedia","number_of_employees":12.0,"country":"USA","city":"Brentwood","lat":36.030702,"long":-86.776051,"type":"BigCompany"},{"category_code":"games_video","founded_year":2008,"name":"GEN247","number_of_employees":12.0,"country":"USA","city":"Brooklyn","lat":40.727434,"long":-73.9447994,"type":"Startup"},{"category_code":"games_video","founded_year":2008,"name":"Tubefilter","number_of_employees":12.0,"country":"USA","city":"Los Angeles","lat":34.070436,"long":-118.350486,"type":"Startup"},{"category_code":"software","founded_year":2005,"name":"Mexuar Communications","number_of_employees":12.0,"country":"GBR","city":"Manchester","lat":53.465082,"long":-2.335605,"type":"BigCompany"},{"category_code":"games_video","founded_year":2008,"name":"Tubefilter","number_of_employees":12.0,"country":"USA","city":"Los Angeles","lat":34.070436,"long":-118.350486,"type":"Startup"},{"category_code":"software","founded_year":2005,"name":"Mexuar Communications","number_of_employees":12.0,"country":"GBR","city":"Manchester","lat":53.465082,"long":-2.335605,"type":"BigCompany"},{"category_code":"games_video","founded_year":2006,"name":"Fusion Creative Studios","number_of_employees":12.0,"country":"USA","city":"Branford","lat":41.303696,"long":-72.768842,"type":"BigCompany"},{"category_code":"games_video","founded_year":2005,"name":"DigitalDeejay","number_of_employees":12.0,"country":"FRA","city":"CALUIRE ET CUIRE","lat":45.792717,"long":4.830048,"type":"BigCompany"},{"category_code":"games_video","founded_year":2006,"name":"Citizenside","number_of_employees":12.0,"country":"FRA","city":"Paris","lat":48.8926988,"long":2.3179601,"type":"BigCompany"},{"category_code":"games_video","founded_year":2007,"name":"Compete-At","number_of_employees":12.0,"country":"USA","city":"Bethesda","lat":38.9897861,"long":-77.0989247,"type":"BigCompany"},{"category_code":"software","founded_year":2005,"name":"Socialwrks","number_of_employees":12.0,"country":"GBR","city":"Guildford","lat":51.2402584,"long":-0.6126472,"type":"BigCompany"},{"category_code":"games_video","founded_year":2007,"name":"MixMatchMusic","number_of_employees":12.0,"country":"USA","city":"Burlingame","lat":37.5768841,"long":-122.3462137,"type":"BigCompany"},{"category_code":"software","founded_year":2006,"name":"Shane Longman","number_of_employees":12.0,"country":"AUS","city":"Sydney","lat":-37.639333,"long":144.9504861,"type":"BigCompany"},{"category_code":"software","founded_year":2009,"name":"Transifex","number_of_employees":12.0,"country":"USA","city":"Menlo Park","lat":37.4513629,"long":-122.1842112,"type":"Startup"},{"category_code":"software","founded_year":2007,"name":"FreshNetworks","number_of_employees":12.0,"country":"GBR","city":"London","lat":51.5178123,"long":-0.11796,"type":"BigCompany"},{"category_code":"software","founded_year":2007,"name":"ITDatabase","number_of_employees":12.0,"country":"USA","city":"San Francisco","lat":37.778545,"long":-122.437716,"type":"BigCompany"},{"category_code":"software","founded_year":2008,"name":"SwapBeats","number_of_employees":12.0,"country":"USA","city":"Minneapolis","lat":44.977482,"long":-93.264351,"type":"Startup"},{"category_code":"software","founded_year":2005,"name":"Garlik","number_of_employees":12.0,"country":"GBR","city":"Richmond","lat":51.462108,"long":-0.295441,"type":"BigCompany"},{"category_code":"software","founded_year":2008,"name":"ubigrate","number_of_employees":12.0,"country":"DEU","city":"Dresden","lat":51.0343624,"long":13.7759644,"type":"Startup"},{"category_code":"games_video","founded_year":2007,"name":"Redux","number_of_employees":11.0,"country":"USA","city":"Berkeley","lat":37.87168,"long":-122.269494,"type":"BigCompany"},{"category_code":"software","founded_year":2007,"name":"allyve","number_of_employees":11.0,"country":"DEU","city":"Hamburg","lat":53.550572,"long":9.997669,"type":"BigCompany"},{"category_code":"software","founded_year":2006,"name":"DisputeSuite","number_of_employees":11.0,"country":"USA","city":"New Port Richey","lat":28.262756,"long":-82.728466,"type":"BigCompany"},{"category_code":"games_video","founded_year":2008,"name":"IBTgames","number_of_employees":11.0,"country":"BGD","city":"Dhaka","lat":23.797333,"long":90.401432,"type":"Startup"},{"category_code":"games_video","founded_year":2007,"name":"TubeSpree","number_of_employees":11.0,"country":"USA","city":"San Francisco","lat":37.781386,"long":-122.421406,"type":"BigCompany"},{"category_code":"software","founded_year":2007,"name":"PEX Card","number_of_employees":11.0,"country":"USA","city":"New York","lat":40.752539,"long":-73.987871,"type":"BigCompany"},{"category_code":"software","founded_year":2009,"name":"JustProto","number_of_employees":11.0,"country":"POL","city":"Gdynia","lat":54.520135,"long":18.5416342,"type":"Startup"},{"category_code":"software","founded_year":2008,"name":"Continuity Engine","number_of_employees":11.0,"country":"USA","city":"New Haven","lat":41.3279176,"long":-73.2435522,"type":"Startup"},{"category_code":"games_video","founded_year":2005,"name":"Recombinant","number_of_employees":10.0,"country":"USA","city":"Santa Cruz","lat":36.977905,"long":-122.03336,"type":"BigCompany"},{"category_code":"games_video","founded_year":2006,"name":"WebRidesTV","number_of_employees":10.0,"country":"USA","city":"Culver City","lat":34.024453,"long":-118.380437,"type":"BigCompany"},{"category_code":"games_video","founded_year":2008,"name":"AudioMicro","number_of_employees":10.0,"country":"USA","city":"Sherman Oaks","lat":34.153588,"long":-118.422495,"type":"Startup"},{"category_code":"software","founded_year":2005,"name":"Moviestorm","number_of_employees":10.0,"country":"GBR","city":"Cambridge","lat":52.197471,"long":0.130588,"type":"BigCompany"},{"category_code":"games_video","founded_year":2006,"name":"Podbean LLC","number_of_employees":10.0,"country":"USA","city":"Wilmington","lat":39.786948,"long":-75.485407,"type":"BigCompany"},{"category_code":"software","founded_year":2005,"name":"AFrame Digital","number_of_employees":10.0,"country":"USA","city":"Reston","lat":38.875876,"long":-77.220779,"type":"BigCompany"},{"category_code":"games_video","founded_year":2011,"name":"Pixelmatic","number_of_employees":10.0,"country":"CAN","city":"Vancouver","lat":49.263588,"long":-123.138565,"type":"Startup"},{"category_code":"games_video","founded_year":2007,"name":"My Damn Channel","number_of_employees":10.0,"country":"USA","city":"New York","lat":40.754762,"long":-73.988543,"type":"BigCompany"},{"category_code":"games_video","founded_year":2006,"name":"YOOWALK","number_of_employees":10.0,"country":"FRA","city":"Paris","lat":48.8475487,"long":2.2992348,"type":"BigCompany"},{"category_code":"software","founded_year":2007,"name":"InterActive Applicant","number_of_employees":10.0,"country":"CAN","city":"Calgary","lat":51.005717,"long":-114.130296,"type":"BigCompany"},{"category_code":"software","founded_year":2008,"name":"Producteev","number_of_employees":10.0,"country":"USA","city":"New York","lat":40.775309,"long":-73.983656,"type":"Startup"},{"category_code":"software","founded_year":2008,"name":"Dooit","number_of_employees":10.0,"country":"ITA","city":"Treviso","lat":45.657409,"long":12.22861,"type":"Startup"},{"category_code":"software","founded_year":2008,"name":"Producteev","number_of_employees":10.0,"country":"USA","city":"New York","lat":40.775309,"long":-73.983656,"type":"Startup"},{"category_code":"software","founded_year":2008,"name":"Dooit","number_of_employees":10.0,"country":"ITA","city":"Treviso","lat":45.657409,"long":12.22861,"type":"Startup"},{"category_code":"software","founded_year":2006,"name":"Roomex","number_of_employees":10.0,"country":"IRL","city":"Dublin","lat":53.308258,"long":-6.238443,"type":"BigCompany"},{"category_code":"games_video","founded_year":2006,"name":"Radio One Llama","number_of_employees":10.0,"country":"USA","city":"Champaign","lat":40.1128,"long":-88.271074,"type":"BigCompany"},{"category_code":"software","founded_year":2004,"name":"BonzaDat","number_of_employees":10.0,"country":"AUS","city":"Queensland","lat":-27.621592,"long":152.778976,"type":"BigCompany"},{"category_code":"games_video","founded_year":2008,"name":"ReplayGamez","number_of_employees":10.0,"country":"USA","city":"Flowermound","lat":29.550027,"long":-95.693347,"type":"Startup"},{"category_code":"software","founded_year":2007,"name":"MaxPowerSoft","number_of_employees":10.0,"country":"USA","city":"San Diego","lat":32.908601,"long":-117.091176,"type":"BigCompany"},{"category_code":"games_video","founded_year":2006,"name":"SonicLiving","number_of_employees":10.0,"country":"USA","city":"San Francisco","lat":37.8448035,"long":-122.290897,"type":"BigCompany"},{"category_code":"software","founded_year":2006,"name":"Gtm infotech","number_of_employees":10.0,"country":"IND","city":"Chennai","lat":13.0600605,"long":80.174135,"type":"BigCompany"},{"category_code":"software","founded_year":2006,"name":"Pierlis","number_of_employees":10.0,"country":"FRA","city":"Paris","lat":48.8762407,"long":2.3503689,"type":"BigCompany"},{"category_code":"software","founded_year":2004,"name":"Nodeta","number_of_employees":10.0,"country":"FIN","city":"Helsinki","lat":60.215635,"long":24.8703542,"type":"BigCompany"},{"category_code":"games_video","founded_year":2007,"name":"iViioo","number_of_employees":10.0,"country":"USA","city":"","lat":37.5340363,"long":-121.9131761,"type":"BigCompany"},{"category_code":"software","founded_year":2007,"name":"RS Techno Solutions","number_of_employees":10.0,"country":"IND","city":"","lat":26.9330943,"long":75.7969791,"type":"BigCompany"},{"category_code":"games_video","founded_year":2008,"name":"Filmed Media","number_of_employees":10.0,"country":"GBR","city":"London","lat":51.5359008,"long":-0.2055081,"type":"Startup"},{"category_code":"software","founded_year":2005,"name":"Reactor Zero","number_of_employees":10.0,"country":"USA","city":"Ann Arbor","lat":42.232512,"long":-83.7464742,"type":"BigCompany"},{"category_code":"software","founded_year":2007,"name":"PersonAll","number_of_employees":10.0,"country":"FRA","city":"Saint-Maur","lat":48.7900014,"long":2.4772506,"type":"BigCompany"},{"category_code":"software","founded_year":2008,"name":"OutlookCloud","number_of_employees":10.0,"country":"USA","city":"Sunnyvale","lat":37.3492097,"long":-122.0326019,"type":"Startup"},{"category_code":"games_video","founded_year":2008,"name":"SAMP2","number_of_employees":10.0,"country":"NLD","city":"Bilthoven","lat":52.1424695,"long":5.2092075,"type":"Startup"},{"category_code":"software","founded_year":2005,"name":"Qbit","number_of_employees":10.0,"country":"USA","city":"Gaithersburg","lat":39.136902,"long":-77.223186,"type":"BigCompany"},{"category_code":"software","founded_year":2007,"name":"Emoshape","number_of_employees":10.0,"country":"GBR","city":"London","lat":51.5123833,"long":-0.1158832,"type":"BigCompany"},{"category_code":"games_video","founded_year":2007,"name":"LoomTV","number_of_employees":10.0,"country":"DEU","city":"Neuss","lat":51.1977634,"long":6.6906699,"type":"BigCompany"},{"category_code":"software","founded_year":2007,"name":"CodeGlide","number_of_employees":10.0,"country":"USA","city":"San Francisco","lat":37.7934643,"long":-122.3979712,"type":"BigCompany"},{"category_code":"games_video","founded_year":2008,"name":"Wisevid","number_of_employees":10.0,"country":"CAN","city":"Toronto","lat":43.670233,"long":-79.386755,"type":"Startup"},{"category_code":"software","founded_year":2007,"name":"ScienceOps","number_of_employees":10.0,"country":"USA","city":"Mount Vernon","lat":47.762959,"long":-122.1825889,"type":"BigCompany"},{"category_code":"software","founded_year":2006,"name":"Distant Measures","number_of_employees":10.0,"country":"USA","city":"","lat":33.5725815,"long":-112.0118669,"type":"BigCompany"},{"category_code":"software","founded_year":2006,"name":"RedBlack Software","number_of_employees":10.0,"country":"USA","city":"Bedford","lat":42.9250967,"long":-71.4605661,"type":"BigCompany"},{"category_code":"software","founded_year":2008,"name":"Touch Ahead Software","number_of_employees":10.0,"country":"USA","city":"Boston","lat":42.3503375,"long":-71.0605985,"type":"Startup"},{"category_code":"software","founded_year":2009,"name":"Antelink","number_of_employees":10.0,"country":"FRA","city":"Paris 10\u00c3\u00a8me","lat":48.8524775,"long":2.3660117,"type":"Startup"},{"category_code":"games_video","founded_year":2009,"name":"BIT TV","number_of_employees":10.0,"country":"USA","city":"Portland","lat":45.488419,"long":-122.642156,"type":"Startup"},{"category_code":"software","founded_year":2009,"name":"AlphaPoint Technology","number_of_employees":10.0,"country":"USA","city":"Sarasota","lat":27.3858,"long":-82.423,"type":"Startup"},{"category_code":"software","founded_year":2007,"name":"ColdLight Solutions","number_of_employees":10.0,"country":"USA","city":"Wayne","lat":40.075096,"long":-75.42402,"type":"BigCompany"},{"category_code":"software","founded_year":2008,"name":"Primediart","number_of_employees":10.0,"country":"IND","city":"Kolkata","lat":22.5985389,"long":88.40286,"type":"Startup"},{"category_code":"games_video","founded_year":2010,"name":"ekidnaworld","number_of_employees":10.0,"country":"AUS","city":"Queensland","lat":-27.4574861,"long":153.033686,"type":"Startup"},{"category_code":"software","founded_year":2005,"name":"Kryptiva","number_of_employees":10.0,"country":"CAN","city":"Sherbrooke","lat":45.412456,"long":-71.932698,"type":"BigCompany"},{"category_code":"software","founded_year":2009,"name":"Eventric","number_of_employees":10.0,"country":"USA","city":"Chicago","lat":41.9174637,"long":-87.6664837,"type":"Startup"},{"category_code":"software","founded_year":2007,"name":"Rabbit Technologies","number_of_employees":10.0,"country":"GBR","city":"London","lat":51.55738,"long":-0.27548,"type":"BigCompany"},{"category_code":"software","founded_year":2008,"name":"B32TRUST","number_of_employees":10.0,"country":"FRA","city":"Paris","lat":48.8566667,"long":2.3509871,"type":"Startup"},{"category_code":"software","founded_year":2006,"name":"8th Light","number_of_employees":10.0,"country":"USA","city":"Libertyville","lat":42.300188,"long":-88.002035,"type":"BigCompany"},{"category_code":"software","founded_year":2006,"name":"Novera","number_of_employees":10.0,"country":"AUS","city":"Sydney","lat":-33.868898,"long":151.202966,"type":"BigCompany"},{"category_code":"software","founded_year":2006,"name":"PubliAtis","number_of_employees":10.0,"country":"FRA","city":"PARIS","lat":48.8699947,"long":2.3406954,"type":"BigCompany"},{"category_code":"software","founded_year":2005,"name":"GroupSwim","number_of_employees":9.0,"country":"USA","city":"San Francisco","lat":37.779558,"long":-122.393041,"type":"BigCompany"},{"category_code":"software","founded_year":2005,"name":"Mobile Rider","number_of_employees":9.0,"country":"USA","city":"Salt Lake City","lat":40.739109,"long":-111.887733,"type":"BigCompany"},{"category_code":"software","founded_year":2006,"name":"Jalbum","number_of_employees":9.0,"country":"SWE","city":"Stockholm","lat":59.335897,"long":18.08897,"type":"BigCompany"},{"category_code":"software","founded_year":2006,"name":"LoudClick","number_of_employees":9.0,"country":"USA","city":"St Paul","lat":44.86495,"long":-93.288479,"type":"BigCompany"},{"category_code":"software","founded_year":2005,"name":"NOLOH","number_of_employees":9.0,"country":"USA","city":"New York","lat":40.762975,"long":-73.9674,"type":"BigCompany"},{"category_code":"software","founded_year":2008,"name":"Occipital","number_of_employees":9.0,"country":"USA","city":"Boulder","lat":40.018145,"long":-105.278109,"type":"Startup"},{"category_code":"software","founded_year":2008,"name":"Occipital","number_of_employees":9.0,"country":"USA","city":"Boulder","lat":40.018145,"long":-105.278109,"type":"Startup"},{"category_code":"software","founded_year":2008,"name":"Ascribe","number_of_employees":9.0,"country":"USA","city":"Grand Rapids","lat":42.9608776,"long":-85.6734906,"type":"Startup"},{"category_code":"software","founded_year":2007,"name":"doejo","number_of_employees":9.0,"country":"USA","city":"Chicago","lat":41.951198,"long":-87.649563,"type":"BigCompany"},{"category_code":"software","founded_year":2004,"name":"CxT Group","number_of_employees":9.0,"country":"USA","city":"Bloomfield Hills","lat":42.605626,"long":-83.319932,"type":"BigCompany"},{"category_code":"software","founded_year":2007,"name":"DreamOval","number_of_employees":9.0,"country":"GHA","city":"Accra","lat":5.555717,"long":-0.196306,"type":"BigCompany"},{"category_code":"software","founded_year":2007,"name":"Hiremac","number_of_employees":9.0,"country":"USA","city":"Chicago","lat":41.663359,"long":-87.6259052,"type":"BigCompany"},{"category_code":"games_video","founded_year":2008,"name":"YouBeQB","number_of_employees":8.0,"country":"USA","city":"Bellevue","lat":47.597965,"long":-122.151158,"type":"Startup"},{"category_code":"games_video","founded_year":2006,"name":"RiffTrax","number_of_employees":8.0,"country":"USA","city":"San Diego","lat":32.936973,"long":-117.240431,"type":"BigCompany"},{"category_code":"games_video","founded_year":2005,"name":"EMOB","number_of_employees":8.0,"country":"FRA","city":"Toulon","lat":43.124351,"long":5.929313,"type":"BigCompany"},{"category_code":"software","founded_year":2007,"name":"Boomerang Data","number_of_employees":8.0,"country":"USA","city":"Richardson","lat":32.974194,"long":-96.714066,"type":"BigCompany"},{"category_code":"games_video","founded_year":2007,"name":"XIHA","number_of_employees":8.0,"country":"FIN","city":"Helsinki","lat":60.1681494,"long":24.9410012,"type":"BigCompany"},{"category_code":"software","founded_year":2009,"name":"Macroaxis","number_of_employees":8.0,"country":"USA","city":"San Francisco","lat":37.7896292,"long":-122.3998782,"type":"Startup"},{"category_code":"software","founded_year":2008,"name":"NitroDesk","number_of_employees":8.0,"country":"USA","city":"Bellevue","lat":47.584975,"long":-122.132013,"type":"Startup"},{"category_code":"software","founded_year":2007,"name":"inFlow Inventory Software","number_of_employees":8.0,"country":"CAN","city":"Toronto","lat":43.790009,"long":-79.25708,"type":"BigCompany"},{"category_code":"games_video","founded_year":2008,"name":"GigMaven","number_of_employees":8.0,"country":"USA","city":"New York","lat":40.724289,"long":-73.980587,"type":"Startup"},{"category_code":"games_video","founded_year":2008,"name":"Scavenja","number_of_employees":8.0,"country":"USA","city":"San Francisco","lat":37.780134,"long":-122.396744,"type":"Startup"},{"category_code":"games_video","founded_year":2007,"name":"Kazzong","number_of_employees":8.0,"country":"DEU","city":"Munich","lat":48.143941,"long":11.450883,"type":"BigCompany"},{"category_code":"games_video","founded_year":2008,"name":"Mixcloud","number_of_employees":8.0,"country":"GBR","city":"London","lat":51.5399105,"long":-0.2859795,"type":"Startup"},{"category_code":"software","founded_year":2007,"name":"PX Interactive","number_of_employees":8.0,"country":"USA","city":"San Francisco","lat":37.781754,"long":-122.407709,"type":"BigCompany"},{"category_code":"games_video","founded_year":2006,"name":"Wevod","number_of_employees":8.0,"country":"FRA","city":"Paris","lat":48.846726,"long":2.321213,"type":"BigCompany"},{"category_code":"software","founded_year":2007,"name":"PX Interactive","number_of_employees":8.0,"country":"USA","city":"San Francisco","lat":37.781754,"long":-122.407709,"type":"BigCompany"},{"category_code":"games_video","founded_year":2006,"name":"Wevod","number_of_employees":8.0,"country":"FRA","city":"Paris","lat":48.846726,"long":2.321213,"type":"BigCompany"},{"category_code":"software","founded_year":2008,"name":"BuzzStream","number_of_employees":8.0,"country":"USA","city":"Austin","lat":30.290699,"long":-97.750885,"type":"Startup"},{"category_code":"games_video","founded_year":2007,"name":"SureSpeak","number_of_employees":8.0,"country":"USA","city":"Chicago","lat":41.889183,"long":-87.632519,"type":"BigCompany"},{"category_code":"software","founded_year":2008,"name":"ZimpleMoney","number_of_employees":8.0,"country":"USA","city":"Costa Mesa","lat":33.6396749,"long":-117.9416077,"type":"Startup"},{"category_code":"games_video","founded_year":2007,"name":"DBL LLC","number_of_employees":8.0,"country":"USA","city":"Spartanburg","lat":34.964436,"long":-81.968024,"type":"BigCompany"},{"category_code":"software","founded_year":2006,"name":"deeplocal","number_of_employees":8.0,"country":"USA","city":"Pittsburgh","lat":40.461149,"long":-79.923411,"type":"BigCompany"},{"category_code":"software","founded_year":2007,"name":"StockNod","number_of_employees":8.0,"country":"USA","city":"Bee Cave","lat":30.298143,"long":-97.96114,"type":"BigCompany"},{"category_code":"games_video","founded_year":2004,"name":"MediaRich","number_of_employees":8.0,"country":"USA","city":"San Antonio","lat":29.414897,"long":-98.48972,"type":"BigCompany"},{"category_code":"software","founded_year":2009,"name":"1calendar","number_of_employees":8.0,"country":"DNK","city":"Copenhagen","lat":55.6770321,"long":12.5751278,"type":"Startup"},{"category_code":"games_video","founded_year":2008,"name":"Owngig","number_of_employees":8.0,"country":"GBR","city":"London","lat":39.39615,"long":22.76303,"type":"Startup"},{"category_code":"software","founded_year":2009,"name":"makandra","number_of_employees":8.0,"country":"DEU","city":"Augsburg","lat":48.3400291,"long":10.9059804,"type":"Startup"},{"category_code":"software","founded_year":2009,"name":"IndiaOnAPage","number_of_employees":8.0,"country":"IND","city":"Bangalore","lat":12.9164537,"long":77.6101165,"type":"Startup"},{"category_code":"software","founded_year":2007,"name":"VISup","number_of_employees":8.0,"country":"ITA","city":"MILANO","lat":45.4650967,"long":9.2114266,"type":"BigCompany"},{"category_code":"software","founded_year":2006,"name":"C3 SoftWorks","number_of_employees":8.0,"country":"USA","city":"Minneapolis","lat":44.9851554,"long":-93.2709923,"type":"BigCompany"},{"category_code":"games_video","founded_year":2007,"name":"Sauspiel","number_of_employees":8.0,"country":"DEU","city":"Berlin","lat":52.4943074,"long":13.434474,"type":"BigCompany"},{"category_code":"games_video","founded_year":2007,"name":"DJ Nitrogen","number_of_employees":8.0,"country":"USA","city":"San Francisco","lat":37.7841737,"long":-122.4494082,"type":"BigCompany"},{"category_code":"games_video","founded_year":2009,"name":"alluc","number_of_employees":7.0,"country":"DEU","city":"Norderstedt","lat":53.707739,"long":10.023246,"type":"Startup"},{"category_code":"software","founded_year":2004,"name":"Franson Technology AB","number_of_employees":7.0,"country":"SWE","city":"Stockholm","lat":59.342079,"long":18.057102,"type":"BigCompany"},{"category_code":"software","founded_year":2006,"name":"dotSyntax","number_of_employees":7.0,"country":"USA","city":"Rochester","lat":43.073968,"long":-77.663171,"type":"BigCompany"},{"category_code":"software","founded_year":2004,"name":"JobScore","number_of_employees":7.0,"country":"USA","city":"San Francisco","lat":37.7881481,"long":-122.3943387,"type":"BigCompany"},{"category_code":"software","founded_year":2006,"name":"Envient","number_of_employees":7.0,"country":"ROM","city":"Bucharest","lat":45.943161,"long":24.96676,"type":"BigCompany"},{"category_code":"software","founded_year":2006,"name":"Signal","number_of_employees":7.0,"country":"USA","city":"Chicago","lat":41.8883695,"long":-87.6353645,"type":"BigCompany"},{"category_code":"games_video","founded_year":2008,"name":"plaYce","number_of_employees":7.0,"country":"USA","city":"San Francisco","lat":37.80204,"long":-122.438231,"type":"Startup"},{"category_code":"games_video","founded_year":2008,"name":"plaYce","number_of_employees":7.0,"country":"USA","city":"San Francisco","lat":37.80204,"long":-122.438231,"type":"Startup"},{"category_code":"software","founded_year":2008,"name":"iKlax Media","number_of_employees":7.0,"country":"FRA","city":"BIDART","lat":43.4477272,"long":-1.5555799,"type":"Startup"},{"category_code":"software","founded_year":2007,"name":"Rezgo","number_of_employees":7.0,"country":"CAN","city":"North Vancouver","lat":49.311752,"long":-123.078758,"type":"BigCompany"},{"category_code":"software","founded_year":2005,"name":"Alliance Card","number_of_employees":7.0,"country":"USA","city":"Burnsville","lat":44.785024,"long":-93.251434,"type":"BigCompany"},{"category_code":"games_video","founded_year":2008,"name":"InnovSoft Consulting Limited","number_of_employees":7.0,"country":"CAN","city":"Laval","lat":45.5411602,"long":-73.7481222,"type":"Startup"},{"category_code":"software","founded_year":2007,"name":"Adlogix","number_of_employees":7.0,"country":"BEL","city":"Brussels","lat":50.8197063,"long":4.325488,"type":"BigCompany"},{"category_code":"games_video","founded_year":2007,"name":"Did it Leak","number_of_employees":7.0,"country":"CAN","city":"Vancouver","lat":49.27964,"long":-123.1204046,"type":"BigCompany"},{"category_code":"software","founded_year":2008,"name":"Hireglyphics","number_of_employees":7.0,"country":"CAN","city":"Toronto","lat":43.6366465,"long":-79.4264794,"type":"Startup"},{"category_code":"software","founded_year":2007,"name":"Klaxa","number_of_employees":7.0,"country":"CAN","city":"Montreal","lat":45.4874956,"long":-73.5909495,"type":"BigCompany"},{"category_code":"software","founded_year":2008,"name":"StickyStreet","number_of_employees":7.0,"country":"USA","city":"Washington","lat":38.897145,"long":-77.068963,"type":"Startup"},{"category_code":"software","founded_year":2008,"name":"Link Trigger","number_of_employees":7.0,"country":"USA","city":"Fort Lauderdale","lat":26.2032036,"long":-80.1510951,"type":"Startup"},{"category_code":"games_video","founded_year":2008,"name":"Aptocore","number_of_employees":7.0,"country":"DNK","city":"Copenhagen","lat":55.6975098,"long":12.5401817,"type":"Startup"},{"category_code":"software","founded_year":2005,"name":"MetaGeek, LLC","number_of_employees":7.0,"country":"USA","city":"Boise","lat":43.608974,"long":-116.308755,"type":"BigCompany"},{"category_code":"games_video","founded_year":2005,"name":"Video Game 911","number_of_employees":7.0,"country":"USA","city":"Denville","lat":40.878656,"long":-74.4800198,"type":"BigCompany"},{"category_code":"software","founded_year":2009,"name":"ftopia","number_of_employees":7.0,"country":"FRA","city":"Paris","lat":53.3328144,"long":-6.2493777,"type":"Startup"},{"category_code":"software","founded_year":2006,"name":"Vuzit","number_of_employees":6.0,"country":"USA","city":"Philadelphia","lat":39.9564403,"long":-75.1961715,"type":"BigCompany"},{"category_code":"software","founded_year":2007,"name":"Booklamp","number_of_employees":6.0,"country":"USA","city":"","lat":45.494552,"long":-114.143262,"type":"BigCompany"},{"category_code":"games_video","founded_year":2005,"name":"Toufee","number_of_employees":6.0,"country":"IND","city":"New Delhi","lat":28.559421,"long":77.198911,"type":"BigCompany"},{"category_code":"games_video","founded_year":2008,"name":"Episodic","number_of_employees":6.0,"country":"USA","city":"","lat":37.269175,"long":-119.306607,"type":"Startup"},{"category_code":"software","founded_year":2007,"name":"KIVISOFT","number_of_employees":6.0,"country":"TUR","city":"istanbul","lat":41.06052,"long":28.977046,"type":"BigCompany"},{"category_code":"software","founded_year":2006,"name":"EADOC","number_of_employees":6.0,"country":"USA","city":"Oakland","lat":37.804436,"long":-122.270677,"type":"BigCompany"},{"category_code":"games_video","founded_year":2011,"name":"Fuzz","number_of_employees":6.0,"country":"USA","city":"Santa Clara","lat":37.760524,"long":-122.387799,"type":"Startup"},{"category_code":"software","founded_year":2007,"name":"rVita","number_of_employees":6.0,"country":"USA","city":"Santa Clara","lat":37.398476,"long":-121.978821,"type":"BigCompany"},{"category_code":"software","founded_year":2008,"name":"Pinch Media","number_of_employees":6.0,"country":"USA","city":"New York","lat":40.757929,"long":-73.985506,"type":"Startup"},{"category_code":"software","founded_year":2007,"name":"Nexnet","number_of_employees":6.0,"country":"USA","city":"Knoxville","lat":35.921428,"long":-84.084137,"type":"BigCompany"},{"category_code":"software","founded_year":2007,"name":"Dreamsoft Technologies","number_of_employees":6.0,"country":"GBR","city":"","lat":53.616352,"long":-2.15871,"type":"BigCompany"},{"category_code":"software","founded_year":2007,"name":"TennisPoint","number_of_employees":6.0,"country":"USA","city":"Marietta","lat":33.939116,"long":-84.444006,"type":"BigCompany"},{"category_code":"games_video","founded_year":2007,"name":"LOG607","number_of_employees":6.0,"country":"ITA","city":"Roncade TV","lat":45.564209,"long":12.436354,"type":"BigCompany"},{"category_code":"software","founded_year":2007,"name":"Pelotonics","number_of_employees":6.0,"country":"USA","city":"San Diego","lat":32.891152,"long":-117.200712,"type":"BigCompany"},{"category_code":"software","founded_year":2007,"name":"Red Wolf Online","number_of_employees":6.0,"country":"CAN","city":"Toronto","lat":43.70452,"long":-79.458419,"type":"BigCompany"},{"category_code":"software","founded_year":2004,"name":"2GeeksinaLab","number_of_employees":6.0,"country":"USA","city":"Palmdale","lat":34.633698,"long":-118.152249,"type":"BigCompany"},{"category_code":"software","founded_year":2007,"name":"Red Wolf Online","number_of_employees":6.0,"country":"CAN","city":"Toronto","lat":43.70452,"long":-79.458419,"type":"BigCompany"},{"category_code":"software","founded_year":2004,"name":"2GeeksinaLab","number_of_employees":6.0,"country":"USA","city":"Palmdale","lat":34.633698,"long":-118.152249,"type":"BigCompany"},{"category_code":"software","founded_year":2007,"name":"pomeloTV","number_of_employees":6.0,"country":"ESP","city":"Madrid","lat":40.4367771,"long":-3.6685036,"type":"BigCompany"},{"category_code":"software","founded_year":2007,"name":"Plura Processing","number_of_employees":6.0,"country":"USA","city":"Houston","lat":29.787991,"long":-95.598441,"type":"BigCompany"},{"category_code":"software","founded_year":2007,"name":"Striker Manager","number_of_employees":6.0,"country":"ESP","city":"Barcelona","lat":41.4063346,"long":2.1920231,"type":"BigCompany"},{"category_code":"software","founded_year":2007,"name":"Botego","number_of_employees":6.0,"country":"TUR","city":"Istanbul","lat":41.043039,"long":29.003631,"type":"BigCompany"},{"category_code":"software","founded_year":2007,"name":"Mashup Arts","number_of_employees":6.0,"country":"CAN","city":"Halifax","lat":43.648786,"long":-79.3777473,"type":"BigCompany"},{"category_code":"games_video","founded_year":2008,"name":"Dodreams","number_of_employees":6.0,"country":"FIN","city":"","lat":60.1659819,"long":24.9438568,"type":"Startup"},{"category_code":"software","founded_year":2007,"name":"PlanningWiz","number_of_employees":6.0,"country":"DEU","city":"M\u0081\u0081\u00fcnster","lat":51.9266839,"long":7.6341781,"type":"BigCompany"},{"category_code":"software","founded_year":2008,"name":"iPlanmaker","number_of_employees":6.0,"country":"USA","city":"Chicago","lat":41.8719878,"long":-87.6416957,"type":"Startup"},{"category_code":"software","founded_year":2009,"name":"DP7 Digital","number_of_employees":6.0,"country":"BRA","city":"Sao Paulo","lat":-23.5815208,"long":-46.6773686,"type":"Startup"},{"category_code":"software","founded_year":2007,"name":"DataFeedScripts","number_of_employees":6.0,"country":"USA","city":"Lynden","lat":48.9423947,"long":-122.4544302,"type":"BigCompany"},{"category_code":"software","founded_year":2009,"name":"Lipperhey","number_of_employees":6.0,"country":"NLD","city":"Amsterdam","lat":52.3655578,"long":4.9345824,"type":"Startup"},{"category_code":"software","founded_year":2006,"name":"JumpBox","number_of_employees":5.0,"country":"USA","city":"Phoenix","lat":33.429864,"long":-111.944967,"type":"BigCompany"},{"category_code":"games_video","founded_year":2006,"name":"SuTree","number_of_employees":5.0,"country":"ISR","city":"Tel Aviv","lat":32.0554,"long":34.7595,"type":"BigCompany"},{"category_code":"games_video","founded_year":2007,"name":"GotCast","number_of_employees":5.0,"country":"USA","city":"Los Angleles","lat":34.064139,"long":-118.468672,"type":"BigCompany"},{"category_code":"games_video","founded_year":2007,"name":"LiveHire","number_of_employees":5.0,"country":"USA","city":"Edison","lat":40.565602,"long":-74.331811,"type":"BigCompany"},{"category_code":"games_video","founded_year":2006,"name":"WorldTV","number_of_employees":5.0,"country":"IRL","city":"Limerick","lat":52.6638571,"long":-8.6267726,"type":"BigCompany"},{"category_code":"software","founded_year":2006,"name":"HeadStrong Brain Gym","number_of_employees":5.0,"country":"USA","city":"New York","lat":40.75033,"long":-73.968173,"type":"BigCompany"},{"category_code":"games_video","founded_year":2007,"name":"HD Greetings","number_of_employees":5.0,"country":"USA","city":"Burlingame","lat":37.590056,"long":-122.347654,"type":"BigCompany"},{"category_code":"software","founded_year":2007,"name":"doXtop","number_of_employees":5.0,"country":"DEU","city":"Ostfildern","lat":48.7243517,"long":9.2223731,"type":"BigCompany"},{"category_code":"games_video","founded_year":2007,"name":"Viddyou","number_of_employees":5.0,"country":"USA","city":"San Francisco","lat":37.775196,"long":-122.419204,"type":"BigCompany"},{"category_code":"games_video","founded_year":2007,"name":"Omnivents","number_of_employees":5.0,"country":"USA","city":"Palo Alto","lat":37.44296,"long":-122.151198,"type":"BigCompany"},{"category_code":"games_video","founded_year":2006,"name":"SuperVirals","number_of_employees":5.0,"country":"AUS","city":"Surry Hills","lat":-33.88106,"long":151.209351,"type":"BigCompany"},{"category_code":"games_video","founded_year":2008,"name":"Rekatu","number_of_employees":5.0,"country":"USA","city":"Tucson","lat":32.240301,"long":-110.958319,"type":"Startup"},{"category_code":"games_video","founded_year":2007,"name":"Posh24","number_of_employees":5.0,"country":"USA","city":"Stockholm","lat":59.332788,"long":18.064488,"type":"BigCompany"},{"category_code":"software","founded_year":2007,"name":"Crowded Games","number_of_employees":5.0,"country":"CAN","city":"Calgary","lat":50.957706,"long":-114.113778,"type":"BigCompany"},{"category_code":"software","founded_year":2004,"name":"Nectil","number_of_employees":5.0,"country":"BEL","city":"Brussels","lat":50.871109,"long":4.345542,"type":"BigCompany"},{"category_code":"games_video","founded_year":2004,"name":"Batipi","number_of_employees":5.0,"country":"CAN","city":"Toronto","lat":43.6436826,"long":-79.4038652,"type":"BigCompany"},{"category_code":"software","founded_year":2006,"name":"Identyx","number_of_employees":5.0,"country":"USA","city":"Austin","lat":30.39791,"long":-97.748714,"type":"BigCompany"},{"category_code":"games_video","founded_year":2006,"name":"Hive7","number_of_employees":5.0,"country":"USA","city":"Palo Alto","lat":37.44296,"long":-122.151198,"type":"BigCompany"},{"category_code":"software","founded_year":2007,"name":"RedPost","number_of_employees":5.0,"country":"USA","city":"Goshen","lat":41.5849122,"long":-85.8329972,"type":"BigCompany"},{"category_code":"software","founded_year":2012,"name":"Carfeine","number_of_employees":5.0,"country":"USA","city":"Bethesda","lat":38.989124,"long":-77.026676,"type":"Startup"},{"category_code":"software","founded_year":2007,"name":"Syntac Ventures","number_of_employees":5.0,"country":"AUS","city":"Melbourne","lat":-37.813339,"long":144.970823,"type":"BigCompany"},{"category_code":"software","founded_year":2007,"name":"ORELIA","number_of_employees":5.0,"country":"FRA","city":"Fontainebleau","lat":48.407483,"long":2.701038,"type":"BigCompany"},{"category_code":"software","founded_year":2005,"name":"Blue Sky Technologies","number_of_employees":5.0,"country":"USA","city":"Coppell","lat":32.9844884,"long":-96.9932926,"type":"BigCompany"},{"category_code":"software","founded_year":2008,"name":"Uprizer Labs","number_of_employees":5.0,"country":"USA","city":"Austin","lat":30.291391,"long":-97.710481,"type":"Startup"},{"category_code":"software","founded_year":2006,"name":"TimeLapse mobile","number_of_employees":5.0,"country":"USA","city":"Novato","lat":38.068295,"long":-122.532658,"type":"BigCompany"},{"category_code":"software","founded_year":2007,"name":"ipsojobs","number_of_employees":5.0,"country":"ESP","city":"Barcelona","lat":41.406248,"long":2.163194,"type":"BigCompany"},{"category_code":"software","founded_year":2008,"name":"TweetDeck","number_of_employees":5.0,"country":"GBR","city":"London","lat":51.5001524,"long":-0.1262362,"type":"Startup"},{"category_code":"games_video","founded_year":2007,"name":"FABINET","number_of_employees":5.0,"country":"DEU","city":"Leipzig","lat":51.318503,"long":12.381492,"type":"BigCompany"},{"category_code":"software","founded_year":2005,"name":"Instil Software","number_of_employees":5.0,"country":"GBR","city":"Belfast","lat":54.597233,"long":-5.87908,"type":"BigCompany"},{"category_code":"software","founded_year":2006,"name":"Intelliverb","number_of_employees":5.0,"country":"USA","city":"Laurel","lat":39.143942,"long":-76.877448,"type":"BigCompany"},{"category_code":"software","founded_year":2007,"name":"Bridgevest eSolutions","number_of_employees":5.0,"country":"NLD","city":"Rotterdam","lat":51.916547,"long":4.475797,"type":"BigCompany"},{"category_code":"software","founded_year":2007,"name":"Tingz","number_of_employees":5.0,"country":"USA","city":"Knoxville","lat":35.963029,"long":-83.918392,"type":"BigCompany"},{"category_code":"games_video","founded_year":2008,"name":"Bojam","number_of_employees":5.0,"country":"USA","city":"Palo Alto","lat":37.448598,"long":-122.158497,"type":"Startup"},{"category_code":"games_video","founded_year":2005,"name":"Project Amarillo","number_of_employees":5.0,"country":"USA","city":"Amarillo","lat":33.5159679,"long":-101.905099,"type":"BigCompany"},{"category_code":"software","founded_year":2008,"name":"UpdateStar","number_of_employees":5.0,"country":"DEU","city":"Berlin","lat":52.583651,"long":13.285504,"type":"Startup"},{"category_code":"software","founded_year":2007,"name":"Bridgevest eSolutions","number_of_employees":5.0,"country":"NLD","city":"Rotterdam","lat":51.916547,"long":4.475797,"type":"BigCompany"},{"category_code":"software","founded_year":2007,"name":"Tingz","number_of_employees":5.0,"country":"USA","city":"Knoxville","lat":35.963029,"long":-83.918392,"type":"BigCompany"},{"category_code":"games_video","founded_year":2008,"name":"Bojam","number_of_employees":5.0,"country":"USA","city":"Palo Alto","lat":37.448598,"long":-122.158497,"type":"Startup"},{"category_code":"games_video","founded_year":2005,"name":"Project Amarillo","number_of_employees":5.0,"country":"USA","city":"Amarillo","lat":33.5159679,"long":-101.905099,"type":"BigCompany"},{"category_code":"software","founded_year":2008,"name":"UpdateStar","number_of_employees":5.0,"country":"DEU","city":"Berlin","lat":52.583651,"long":13.285504,"type":"Startup"},{"category_code":"software","founded_year":2007,"name":"VistaDB Software","number_of_employees":5.0,"country":"USA","city":"Mount Dora","lat":28.84103,"long":-81.685333,"type":"BigCompany"},{"category_code":"games_video","founded_year":2008,"name":"TWIOA","number_of_employees":5.0,"country":"USA","city":"Toledo","lat":41.65292,"long":-83.577782,"type":"Startup"},{"category_code":"games_video","founded_year":2006,"name":"Musicreview","number_of_employees":5.0,"country":"IRL","city":"dublin","lat":53.335773,"long":-6.371726,"type":"BigCompany"},{"category_code":"software","founded_year":2007,"name":"Gigantiq","number_of_employees":5.0,"country":"AUS","city":"Melbourne","lat":-37.813339,"long":144.970823,"type":"BigCompany"},{"category_code":"software","founded_year":2008,"name":"Buzzr","number_of_employees":5.0,"country":"USA","city":"New York","lat":40.740941,"long":-73.992609,"type":"Startup"},{"category_code":"software","founded_year":2008,"name":"StellarSurvey","number_of_employees":5.0,"country":"USA","city":"Milwaukee","lat":43.097697,"long":-87.895093,"type":"Startup"},{"category_code":"software","founded_year":2008,"name":"Rubysophic","number_of_employees":5.0,"country":"USA","city":"Moraga","lat":37.860866,"long":-122.129671,"type":"Startup"},{"category_code":"software","founded_year":2007,"name":"MindSpring Software","number_of_employees":5.0,"country":"USA","city":"Overland Park","lat":38.929216,"long":-94.68567,"type":"BigCompany"},{"category_code":"games_video","founded_year":2008,"name":"ZOOZ Mobile","number_of_employees":5.0,"country":"USA","city":"Atlanta","lat":33.961646,"long":-84.368975,"type":"Startup"},{"category_code":"games_video","founded_year":2007,"name":"Pilotlite","number_of_employees":5.0,"country":"USA","city":"New York","lat":40.7166822,"long":-74.005398,"type":"BigCompany"},{"category_code":"games_video","founded_year":2006,"name":"Away","number_of_employees":5.0,"country":"GRC","city":"Athens","lat":37.9815443,"long":23.7569904,"type":"BigCompany"},{"category_code":"software","founded_year":2007,"name":"ShedWorx","number_of_employees":5.0,"country":"AUS","city":"Nedlands, WA","lat":-31.97302,"long":115.813457,"type":"BigCompany"},{"category_code":"games_video","founded_year":2007,"name":"VIDDIX","number_of_employees":5.0,"country":"NLD","city":"Utrecht","lat":52.0848526,"long":5.1682449,"type":"BigCompany"},{"category_code":"software","founded_year":2005,"name":"speroware","number_of_employees":5.0,"country":"IND","city":"Bangalore","lat":12.9289835,"long":77.5652543,"type":"BigCompany"},{"category_code":"software","founded_year":2007,"name":"Clikthrough","number_of_employees":5.0,"country":"USA","city":"San Francisco","lat":37.7965781,"long":-122.4022856,"type":"BigCompany"},{"category_code":"games_video","founded_year":2005,"name":"MyOtherDrive","number_of_employees":5.0,"country":"USA","city":"Dayton","lat":39.7605421,"long":-84.1949463,"type":"BigCompany"},{"category_code":"games_video","founded_year":2004,"name":"RealityWanted","number_of_employees":5.0,"country":"USA","city":"Manhattan Beach","lat":33.889965,"long":-118.396254,"type":"BigCompany"},{"category_code":"software","founded_year":2007,"name":"Calyx","number_of_employees":5.0,"country":"HRV","city":"Zagreb","lat":45.802893,"long":15.9716176,"type":"BigCompany"},{"category_code":"games_video","founded_year":2008,"name":"CareerPlayer","number_of_employees":5.0,"country":"GBR","city":"London","lat":51.5001524,"long":-0.1262362,"type":"Startup"},{"category_code":"software","founded_year":2008,"name":"iugo","number_of_employees":5.0,"country":"USA","city":"Wheeling","lat":40.0676659,"long":-80.7237385,"type":"Startup"},{"category_code":"games_video","founded_year":2008,"name":"Kramaley Games","number_of_employees":5.0,"country":"GBR","city":"London","lat":51.4944999,"long":-0.1479318,"type":"Startup"},{"category_code":"games_video","founded_year":2007,"name":"Entropy Computational Services","number_of_employees":5.0,"country":"ESP","city":"Madrid","lat":40.4380872,"long":-3.6760635,"type":"BigCompany"},{"category_code":"software","founded_year":2008,"name":"sexietv","number_of_employees":5.0,"country":"GBR","city":"london","lat":51.4213618,"long":-0.2075938,"type":"Startup"},{"category_code":"games_video","founded_year":2008,"name":"Sabi","number_of_employees":5.0,"country":"USA","city":"Kirkland","lat":47.6667342,"long":-122.1958685,"type":"Startup"},{"category_code":"games_video","founded_year":2007,"name":"SocialRoster","number_of_employees":5.0,"country":"USA","city":"Baltimore","lat":39.2949894,"long":-76.6094997,"type":"BigCompany"},{"category_code":"software","founded_year":2006,"name":"Kalexo","number_of_employees":5.0,"country":"USA","city":"Burlingame","lat":37.589692,"long":-122.340723,"type":"BigCompany"},{"category_code":"games_video","founded_year":2007,"name":"UQ Events","number_of_employees":5.0,"country":"CAN","city":"North Vancouver","lat":49.3484032,"long":-123.0778974,"type":"BigCompany"},{"category_code":"software","founded_year":2008,"name":"Sentry Parental Controls","number_of_employees":5.0,"country":"GBR","city":"Manchester","lat":53.5195474,"long":-2.2550847,"type":"Startup"},{"category_code":"software","founded_year":2007,"name":"Elca Solutions","number_of_employees":5.0,"country":"USA","city":"Gainesville","lat":29.6666736,"long":-82.3375529,"type":"BigCompany"},{"category_code":"games_video","founded_year":2008,"name":"Arimaz","number_of_employees":5.0,"country":"CHE","city":"Renens","lat":46.5389248,"long":6.5877024,"type":"Startup"},{"category_code":"software","founded_year":2008,"name":"AmberBit","number_of_employees":5.0,"country":"POL","city":"Bia\u00c5\u201aystok","lat":53.1371088,"long":23.1540917,"type":"Startup"},{"category_code":"software","founded_year":2007,"name":"Actionize","number_of_employees":5.0,"country":"CHE","city":"Basel","lat":47.5596145,"long":7.5806107,"type":"BigCompany"},{"category_code":"software","founded_year":2008,"name":"Loop11","number_of_employees":5.0,"country":"AUS","city":"South Melbourne","lat":-37.8361,"long":144.9563945,"type":"Startup"},{"category_code":"software","founded_year":2009,"name":"CineSoft","number_of_employees":5.0,"country":"RUS","city":"Moscow","lat":55.7794043,"long":37.6899674,"type":"Startup"},{"category_code":"software","founded_year":2008,"name":"BoardEvals","number_of_employees":5.0,"country":"USA","city":"El Dorado Hills","lat":38.709006,"long":-121.084432,"type":"Startup"},{"category_code":"software","founded_year":2008,"name":"Jumbilo","number_of_employees":5.0,"country":"AUS","city":"Eagle Heights","lat":-27.917488,"long":153.2075297,"type":"Startup"},{"category_code":"games_video","founded_year":2008,"name":"Dance Channel TV, Inc","number_of_employees":5.0,"country":"USA","city":"North Hollywood","lat":34.1658804,"long":-118.3637264,"type":"Startup"},{"category_code":"games_video","founded_year":2008,"name":"HashCube","number_of_employees":5.0,"country":"IND","city":"","lat":12.910491,"long":77.5857168,"type":"Startup"},{"category_code":"games_video","founded_year":2009,"name":"Undead Code Studios","number_of_employees":5.0,"country":"ESP","city":"Madrid","lat":40.6367104,"long":-3.9980485,"type":"Startup"},{"category_code":"software","founded_year":2004,"name":"ExpanDrive","number_of_employees":5.0,"country":"USA","city":"Cambridge","lat":42.375392,"long":-71.118487,"type":"BigCompany"},{"category_code":"software","founded_year":2009,"name":"ResuWe","number_of_employees":5.0,"country":"USA","city":"Laguna Beach","lat":33.5341548,"long":-117.7769669,"type":"Startup"},{"category_code":"software","founded_year":2008,"name":"OnlineMQ","number_of_employees":5.0,"country":"NLD","city":"Den-Haag","lat":52.0889889,"long":4.3016891,"type":"Startup"},{"category_code":"software","founded_year":2009,"name":"Taxi Fares app","number_of_employees":5.0,"country":"ESP","city":"Madrid","lat":40.4244585,"long":-3.6990948,"type":"Startup"},{"category_code":"games_video","founded_year":2007,"name":"Keen Software House","number_of_employees":5.0,"country":"GBR","city":"London","lat":51.5220763,"long":-0.1153003,"type":"BigCompany"},{"category_code":"games_video","founded_year":2006,"name":"Film Annex","number_of_employees":5.0,"country":"USA","city":"New York","lat":40.7464969,"long":-74.0094471,"type":"BigCompany"},{"category_code":"software","founded_year":2007,"name":"Meeho!","number_of_employees":5.0,"country":"DNK","city":"Herlev","lat":55.7525253,"long":12.3933043,"type":"BigCompany"},{"category_code":"games_video","founded_year":2007,"name":"Camlink","number_of_employees":4.0,"country":"USA","city":"Los Gatos","lat":40.757929,"long":-73.985506,"type":"BigCompany"},{"category_code":"software","founded_year":2004,"name":"Realtime Applications","number_of_employees":4.0,"country":"USA","city":"Birmingham","lat":33.477448,"long":-86.819367,"type":"BigCompany"},{"category_code":"games_video","founded_year":2007,"name":"MyMiniLife","number_of_employees":4.0,"country":"USA","city":"Palo Alto","lat":37.437328,"long":-122.159928,"type":"BigCompany"},{"category_code":"games_video","founded_year":2007,"name":"HungryFlix","number_of_employees":4.0,"country":"USA","city":"Caldwell","lat":40.84014,"long":-74.276451,"type":"BigCompany"},{"category_code":"games_video","founded_year":2007,"name":"itbreaks","number_of_employees":4.0,"country":"FRA","city":"Pre st gervais","lat":48.887824,"long":2.402304,"type":"BigCompany"},{"category_code":"software","founded_year":2008,"name":"Edistorm","number_of_employees":4.0,"country":"CAN","city":"Edmonton","lat":53.534692,"long":-113.502765,"type":"Startup"},{"category_code":"games_video","founded_year":2007,"name":"imcandy","number_of_employees":4.0,"country":"ISR","city":"","lat":31.046051,"long":34.851612,"type":"BigCompany"},{"category_code":"software","founded_year":2007,"name":"Coolboysoft","number_of_employees":4.0,"country":"CAN","city":"","lat":56.130366,"long":-106.346771,"type":"BigCompany"},{"category_code":"games_video","founded_year":2007,"name":"Sport Interactiva","number_of_employees":4.0,"country":"USA","city":"Philadelphia","lat":39.951053,"long":-75.197465,"type":"BigCompany"},{"category_code":"software","founded_year":2007,"name":"Kapish","number_of_employees":4.0,"country":"AUS","city":"Docklands","lat":-37.812649,"long":144.943656,"type":"BigCompany"},{"category_code":"games_video","founded_year":2008,"name":"Bars For Us","number_of_employees":4.0,"country":"USA","city":"Raleigh","lat":35.779748,"long":-78.643414,"type":"Startup"},{"category_code":"software","founded_year":2008,"name":"Plum Amazing","number_of_employees":4.0,"country":"USA","city":"Princeville","lat":22.226745,"long":-159.480262,"type":"Startup"},{"category_code":"software","founded_year":2006,"name":"Tesaris","number_of_employees":4.0,"country":"USA","city":"Herriman","lat":40.502908,"long":-112.032503,"type":"BigCompany"},{"category_code":"software","founded_year":2007,"name":"Angstro","number_of_employees":4.0,"country":"USA","city":"Palo Alto","lat":37.444393,"long":-122.163139,"type":"BigCompany"},{"category_code":"software","founded_year":2008,"name":"Shastic","number_of_employees":4.0,"country":"USA","city":"Berkeley","lat":37.8650275,"long":-122.2987371,"type":"Startup"},{"category_code":"software","founded_year":2007,"name":"Scripped","number_of_employees":4.0,"country":"USA","city":"San Francisco","lat":37.7749295,"long":-122.4194155,"type":"BigCompany"},{"category_code":"software","founded_year":2008,"name":"Plum Amazing","number_of_employees":4.0,"country":"USA","city":"Princeville","lat":22.226745,"long":-159.480262,"type":"Startup"},{"category_code":"software","founded_year":2006,"name":"Tesaris","number_of_employees":4.0,"country":"USA","city":"Herriman","lat":40.502908,"long":-112.032503,"type":"BigCompany"},{"category_code":"software","founded_year":2007,"name":"Angstro","number_of_employees":4.0,"country":"USA","city":"Palo Alto","lat":37.444393,"long":-122.163139,"type":"BigCompany"},{"category_code":"software","founded_year":2008,"name":"Shastic","number_of_employees":4.0,"country":"USA","city":"Berkeley","lat":37.8650275,"long":-122.2987371,"type":"Startup"},{"category_code":"software","founded_year":2007,"name":"Scripped","number_of_employees":4.0,"country":"USA","city":"San Francisco","lat":37.7749295,"long":-122.4194155,"type":"BigCompany"},{"category_code":"software","founded_year":2007,"name":"MyOwnDB","number_of_employees":4.0,"country":"BEL","city":"Groot-Bijgaarden","lat":50.871372,"long":4.255123,"type":"BigCompany"},{"category_code":"games_video","founded_year":2007,"name":"Sceneclips","number_of_employees":4.0,"country":"USA","city":"Los Angeles","lat":34.05438,"long":-118.26728,"type":"BigCompany"},{"category_code":"software","founded_year":2006,"name":"Ceboa","number_of_employees":4.0,"country":"USA","city":"Aptos","lat":36.97441,"long":-121.907443,"type":"BigCompany"},{"category_code":"software","founded_year":2007,"name":"SLevolution","number_of_employees":4.0,"country":"GBR","city":"London","lat":51.4598249,"long":-0.1364995,"type":"BigCompany"},{"category_code":"software","founded_year":2008,"name":"Oggle Interactive","number_of_employees":4.0,"country":"CAN","city":"Vancouver","lat":49.2812342,"long":-123.1043395,"type":"Startup"},{"category_code":"software","founded_year":2006,"name":"Agily Networks","number_of_employees":4.0,"country":"USA","city":"San Jose","lat":37.317799,"long":-121.947497,"type":"BigCompany"},{"category_code":"software","founded_year":2006,"name":"HyperStrike","number_of_employees":4.0,"country":"USA","city":"Cupertino","lat":37.322202,"long":-122.054115,"type":"BigCompany"},{"category_code":"software","founded_year":2008,"name":"Krabi ja Mask","number_of_employees":4.0,"country":"EST","city":"Tartu","lat":58.3820245,"long":26.7229199,"type":"Startup"},{"category_code":"software","founded_year":2005,"name":"ServusXchange, LLC","number_of_employees":4.0,"country":"USA","city":"Pompano Beach","lat":26.2341552,"long":-80.1540226,"type":"BigCompany"},{"category_code":"games_video","founded_year":2007,"name":"Sports Reference","number_of_employees":4.0,"country":"USA","city":"Philadelphia","lat":40.0450165,"long":-75.19373,"type":"BigCompany"},{"category_code":"software","founded_year":2006,"name":"Delivered Innovation","number_of_employees":4.0,"country":"USA","city":"Chicago","lat":42.0077207,"long":-87.8240249,"type":"BigCompany"},{"category_code":"games_video","founded_year":2007,"name":"CreationFlow","number_of_employees":4.0,"country":"ARG","city":"Ciudad de Buenos Aires","lat":-34.6028583,"long":-58.4339539,"type":"BigCompany"},{"category_code":"software","founded_year":2008,"name":"Black Ninja Software","number_of_employees":4.0,"country":"CAN","city":"North Vancouver","lat":49.2792347,"long":-123.1172422,"type":"Startup"},{"category_code":"software","founded_year":2009,"name":"PebbleForge","number_of_employees":4.0,"country":"IND","city":"KOCHI, KERALA","lat":9.9396253,"long":76.2594981,"type":"Startup"},{"category_code":"software","founded_year":2009,"name":"OBE Pro","number_of_employees":4.0,"country":"USA","city":"Indian Harbour Beach","lat":28.1524632,"long":-80.5883964,"type":"Startup"},{"category_code":"software","founded_year":2005,"name":"Jresearch Software","number_of_employees":4.0,"country":"CZE","city":"Prague","lat":50.0526024,"long":14.359931,"type":"BigCompany"},{"category_code":"software","founded_year":2008,"name":"Think Orange","number_of_employees":4.0,"country":"PRT","city":"Lisboa","lat":38.703497,"long":-9.178734,"type":"Startup"},{"category_code":"games_video","founded_year":2008,"name":"Swiffen","number_of_employees":4.0,"country":"GBR","city":"London","lat":51.5163382,"long":-0.0828173,"type":"Startup"},{"category_code":"games_video","founded_year":2008,"name":"Jakun Media","number_of_employees":4.0,"country":"DEU","city":"Berlin","lat":53.5849353,"long":10.1251434,"type":"Startup"},{"category_code":"games_video","founded_year":2008,"name":"Silvatar Media","number_of_employees":4.0,"country":"USA","city":"Los Angeles","lat":34.1036353,"long":-118.293316,"type":"Startup"},{"category_code":"software","founded_year":2005,"name":"Tilted Pixel","number_of_employees":4.0,"country":"CAN","city":"Waterloo","lat":43.4796149,"long":-80.5212876,"type":"BigCompany"},{"category_code":"software","founded_year":2005,"name":"Omniscient Technology","number_of_employees":4.0,"country":"CAN","city":"Montreal","lat":45.545447,"long":-73.639076,"type":"BigCompany"},{"category_code":"software","founded_year":2004,"name":"Voon","number_of_employees":4.0,"country":"ARG","city":"Buenos Aires","lat":-34.611781,"long":-58.417309,"type":"BigCompany"},{"category_code":"games_video","founded_year":2006,"name":"Realius","number_of_employees":3.0,"country":"USA","city":"Berkeley","lat":37.887864,"long":-122.26999,"type":"BigCompany"},{"category_code":"games_video","founded_year":2007,"name":"FilmCrave","number_of_employees":3.0,"country":"USA","city":"","lat":38.977092,"long":-94.370901,"type":"BigCompany"},{"category_code":"games_video","founded_year":2007,"name":"DraftMix","number_of_employees":3.0,"country":"USA","city":"Campbell","lat":37.279132,"long":-121.956295,"type":"BigCompany"},{"category_code":"software","founded_year":2006,"name":"Jackson Fish Market","number_of_employees":3.0,"country":"USA","city":"Seattle","lat":47.6018824,"long":-122.3355636,"type":"BigCompany"},{"category_code":"software","founded_year":2007,"name":"littleye","number_of_employees":3.0,"country":"USA","city":"Marina del Rey","lat":33.971132,"long":-118.455798,"type":"BigCompany"},{"category_code":"games_video","founded_year":2007,"name":"Taltopia","number_of_employees":3.0,"country":"USA","city":"Los Angeles","lat":34.052187,"long":-118.243425,"type":"BigCompany"},{"category_code":"software","founded_year":2006,"name":"Litmos","number_of_employees":3.0,"country":"USA","city":"Pleasanton","lat":-36.831639,"long":174.794107,"type":"BigCompany"},{"category_code":"games_video","founded_year":2004,"name":"Music Arsenal","number_of_employees":3.0,"country":"USA","city":"Omaha","lat":41.241101,"long":-96.006819,"type":"BigCompany"},{"category_code":"software","founded_year":2007,"name":"Infovark","number_of_employees":3.0,"country":"USA","city":"Oakton","lat":38.875724,"long":-77.294526,"type":"BigCompany"},{"category_code":"software","founded_year":2008,"name":"FinFolio","number_of_employees":3.0,"country":"USA","city":"Las Vegas","lat":36.136552,"long":-115.154816,"type":"Startup"},{"category_code":"games_video","founded_year":2008,"name":"Sutros","number_of_employees":3.0,"country":"USA","city":"San Francisco","lat":37.756922,"long":-122.42087,"type":"Startup"},{"category_code":"games_video","founded_year":2007,"name":"FantasyBook","number_of_employees":3.0,"country":"USA","city":"Daly City","lat":37.652325,"long":-122.464349,"type":"BigCompany"},{"category_code":"games_video","founded_year":2006,"name":"itMayBe Media","number_of_employees":3.0,"country":"USA","city":"Manville","lat":40.531199,"long":-74.600858,"type":"BigCompany"},{"category_code":"games_video","founded_year":2007,"name":"Open Television Network","number_of_employees":3.0,"country":"USA","city":"Burbank","lat":34.169493,"long":-118.312902,"type":"BigCompany"},{"category_code":"games_video","founded_year":2006,"name":"Pangaeaa Enterprises","number_of_employees":3.0,"country":"USA","city":"Palmetto","lat":33.553846,"long":-84.720134,"type":"BigCompany"},{"category_code":"games_video","founded_year":2005,"name":"The Television Writers Vault","number_of_employees":3.0,"country":"USA","city":"San Diego","lat":33.228284,"long":-116.995957,"type":"BigCompany"},{"category_code":"software","founded_year":2007,"name":"Vitalist","number_of_employees":3.0,"country":"USA","city":"Garland","lat":32.909188,"long":-96.634389,"type":"BigCompany"},{"category_code":"games_video","founded_year":2008,"name":"Bragosphere","number_of_employees":3.0,"country":"USA","city":"Phoenix","lat":33.64873,"long":-112.051346,"type":"Startup"},{"category_code":"software","founded_year":2007,"name":"K12Portal","number_of_employees":3.0,"country":"USA","city":"San Carlos","lat":37.494965,"long":-122.267654,"type":"BigCompany"},{"category_code":"games_video","founded_year":2006,"name":"Overstream","number_of_employees":3.0,"country":"USA","city":"San Francisco","lat":37.791391,"long":-122.402859,"type":"BigCompany"},{"category_code":"software","founded_year":2007,"name":"InThrMa","number_of_employees":3.0,"country":"USA","city":"Oakland","lat":37.810448,"long":-122.239864,"type":"BigCompany"},{"category_code":"software","founded_year":2005,"name":"LenderFlex","number_of_employees":3.0,"country":"USA","city":"Atlanta","lat":33.75,"long":-84.2995,"type":"BigCompany"},{"category_code":"software","founded_year":2007,"name":"Xpree","number_of_employees":3.0,"country":"USA","city":"Redwood City","lat":37.494561,"long":-122.229097,"type":"BigCompany"},{"category_code":"software","founded_year":2007,"name":"ModelSheet Software","number_of_employees":3.0,"country":"USA","city":"Arlington","lat":42.414167,"long":-71.167163,"type":"BigCompany"},{"category_code":"software","founded_year":2006,"name":"Milk-it Software House","number_of_employees":3.0,"country":"BRA","city":"Belo Horizonte","lat":-19.944326,"long":-43.937268,"type":"BigCompany"},{"category_code":"software","founded_year":2006,"name":"Sharendipity","number_of_employees":3.0,"country":"USA","city":"Madison","lat":43.075114,"long":-89.382609,"type":"BigCompany"},{"category_code":"software","founded_year":2006,"name":"Mixed In Key","number_of_employees":3.0,"country":"USA","city":"Rockville","lat":39.083916,"long":-77.156823,"type":"BigCompany"},{"category_code":"software","founded_year":2008,"name":"CropMom","number_of_employees":3.0,"country":"USA","city":"Poway","lat":32.981201,"long":-117.062239,"type":"Startup"},{"category_code":"software","founded_year":2007,"name":"iBit-Lab","number_of_employees":3.0,"country":"USA","city":"Alexandria","lat":38.813998,"long":-77.05856,"type":"BigCompany"},{"category_code":"software","founded_year":2006,"name":"Mixed In Key","number_of_employees":3.0,"country":"USA","city":"Rockville","lat":39.083916,"long":-77.156823,"type":"BigCompany"},{"category_code":"software","founded_year":2008,"name":"CropMom","number_of_employees":3.0,"country":"USA","city":"Poway","lat":32.981201,"long":-117.062239,"type":"Startup"},{"category_code":"software","founded_year":2007,"name":"iBit-Lab","number_of_employees":3.0,"country":"USA","city":"Alexandria","lat":38.813998,"long":-77.05856,"type":"BigCompany"},{"category_code":"software","founded_year":2006,"name":"SoftShell","number_of_employees":3.0,"country":"CAN","city":"London","lat":42.982515,"long":-81.253973,"type":"BigCompany"},{"category_code":"games_video","founded_year":2008,"name":"telewebber","number_of_employees":3.0,"country":"DEU","city":"Bretten","lat":49.03767,"long":8.714079,"type":"Startup"},{"category_code":"software","founded_year":2007,"name":"Computing Data","number_of_employees":3.0,"country":"GBR","city":"Grimsargh Preston","lat":53.8070285,"long":-2.6172859,"type":"BigCompany"},{"category_code":"software","founded_year":2007,"name":"Bandize","number_of_employees":3.0,"country":"USA","city":"Austin","lat":30.2456728,"long":-97.7688358,"type":"BigCompany"},{"category_code":"games_video","founded_year":2008,"name":"Valu Valu","number_of_employees":3.0,"country":"USA","city":"Seattle","lat":47.6254784,"long":-122.3564234,"type":"Startup"},{"category_code":"software","founded_year":2008,"name":"Fitnio","number_of_employees":3.0,"country":"USA","city":"San Mateo","lat":37.5349925,"long":-122.3050823,"type":"Startup"},{"category_code":"games_video","founded_year":2008,"name":"Gemzies","number_of_employees":3.0,"country":"NLD","city":"Amsterdam","lat":52.342938,"long":4.8419083,"type":"Startup"},{"category_code":"software","founded_year":2004,"name":"Digital Base","number_of_employees":3.0,"country":"BEL","city":"Leuven","lat":50.867206,"long":4.700737,"type":"BigCompany"},{"category_code":"games_video","founded_year":2007,"name":"Gawkk","number_of_employees":3.0,"country":"USA","city":"New York","lat":40.778635,"long":-73.984438,"type":"BigCompany"},{"category_code":"software","founded_year":2010,"name":"Reachoo","number_of_employees":3.0,"country":"USA","city":"Pompano Beach","lat":26.2480738,"long":-80.135487,"type":"Startup"},{"category_code":"games_video","founded_year":2010,"name":"Indee","number_of_employees":3.0,"country":"USA","city":"San Francisco","lat":37.8053241,"long":-122.4052761,"type":"Startup"},{"category_code":"software","founded_year":2006,"name":"Swyzzle","number_of_employees":3.0,"country":"USA","city":"Alpharetta","lat":34.0758,"long":-84.2956,"type":"BigCompany"},{"category_code":"games_video","founded_year":2008,"name":"Dog Files","number_of_employees":3.0,"country":"USA","city":"Cranford","lat":40.6569929,"long":-74.3059546,"type":"Startup"},{"category_code":"software","founded_year":2006,"name":"C2BII","number_of_employees":3.0,"country":"GRC","city":"Athens","lat":38.0474497,"long":23.8091477,"type":"BigCompany"},{"category_code":"games_video","founded_year":2009,"name":"Music For Busy People","number_of_employees":3.0,"country":"USA","city":"New York City","lat":40.727763,"long":-73.976169,"type":"Startup"},{"category_code":"software","founded_year":2007,"name":"Pick Yours Up","number_of_employees":3.0,"country":"CAN","city":"Ottawa","lat":45.4160807,"long":-75.6968256,"type":"BigCompany"},{"category_code":"games_video","founded_year":2008,"name":"SwitchGames","number_of_employees":3.0,"country":"USA","city":"New York","lat":40.7297485,"long":-73.9867361,"type":"Startup"},{"category_code":"software","founded_year":2008,"name":"Dinsk","number_of_employees":3.0,"country":"USA","city":"Kirkland","lat":47.723138,"long":-122.2090504,"type":"Startup"},{"category_code":"software","founded_year":2005,"name":"BUGBYTE","number_of_employees":3.0,"country":"NLD","city":"Breda","lat":51.5864572,"long":4.7787001,"type":"BigCompany"},{"category_code":"software","founded_year":2009,"name":"Setster","number_of_employees":3.0,"country":"USA","city":"Hollywood","lat":34.0909811,"long":-118.325739,"type":"Startup"},{"category_code":"games_video","founded_year":2007,"name":"preAmped","number_of_employees":3.0,"country":"USA","city":"Orlando","lat":28.518768,"long":-81.141475,"type":"BigCompany"},{"category_code":"games_video","founded_year":2008,"name":"Mediastroika","number_of_employees":3.0,"country":"FRA","city":"Paris","lat":48.8557544,"long":2.3808328,"type":"Startup"},{"category_code":"software","founded_year":2005,"name":"Pixel Vivant","number_of_employees":3.0,"country":"FRA","city":"Saint-Malo","lat":48.6276289,"long":-1.9856858,"type":"BigCompany"},{"category_code":"software","founded_year":2007,"name":"Without Software","number_of_employees":3.0,"country":"CAN","city":"Toronto, ON","lat":43.6509601,"long":-79.3588278,"type":"BigCompany"},{"category_code":"software","founded_year":2008,"name":"Centic","number_of_employees":3.0,"country":"DNK","city":"Odense S","lat":55.3581088,"long":10.3947844,"type":"Startup"},{"category_code":"software","founded_year":2007,"name":"ParableSoft","number_of_employees":3.0,"country":"USA","city":"Tampa","lat":27.952334,"long":-82.4992,"type":"BigCompany"},{"category_code":"games_video","founded_year":2007,"name":"River Horse","number_of_employees":3.0,"country":"GBR","city":"Wollaton (Nottingham)","lat":52.955042,"long":-1.217092,"type":"BigCompany"},{"category_code":"games_video","founded_year":2009,"name":"Meuzer","number_of_employees":3.0,"country":"USA","city":"San Jose","lat":37.320052,"long":-121.877636,"type":"Startup"},{"category_code":"software","founded_year":2009,"name":"Nirvana","number_of_employees":3.0,"country":"CAN","city":"Montreal","lat":45.5058782,"long":-73.5673333,"type":"Startup"},{"category_code":"games_video","founded_year":2008,"name":"BetKlub","number_of_employees":3.0,"country":"FRA","city":"Paris","lat":48.8787606,"long":2.3639174,"type":"Startup"},{"category_code":"software","founded_year":2006,"name":"AgileJ Limited","number_of_employees":3.0,"country":"GBR","city":"Surbiton","lat":51.393654,"long":-0.3062632,"type":"BigCompany"},{"category_code":"games_video","founded_year":2007,"name":"Picktastic","number_of_employees":2.0,"country":"USA","city":null,"lat":47.680496,"long":-122.120938,"type":"BigCompany"},{"category_code":"games_video","founded_year":2008,"name":"Triptuber","number_of_employees":2.0,"country":"QAT","city":"Doha","lat":25.2948,"long":51.5082,"type":"Startup"},{"category_code":"games_video","founded_year":2007,"name":"JukeFly","number_of_employees":2.0,"country":"USA","city":"San Jose","lat":37.244187,"long":-121.9053,"type":"BigCompany"},{"category_code":"software","founded_year":2007,"name":"Compulsivo","number_of_employees":2.0,"country":"USA","city":"Austin","lat":30.27646,"long":-97.746387,"type":"BigCompany"},{"category_code":"games_video","founded_year":2008,"name":"CineGoGo","number_of_employees":2.0,"country":"USA","city":"San Mateo","lat":37.534317,"long":-122.294847,"type":"Startup"},{"category_code":"games_video","founded_year":2007,"name":"I Heart Movies","number_of_employees":2.0,"country":"USA","city":"Midland","lat":43.626128,"long":-84.227415,"type":"BigCompany"},{"category_code":"games_video","founded_year":2009,"name":"Crootpad","number_of_employees":2.0,"country":"USA","city":"West Dundee","lat":42.091078,"long":-88.288749,"type":"Startup"},{"category_code":"software","founded_year":2007,"name":"Coordinatr","number_of_employees":2.0,"country":"USA","city":"San Francisco","lat":37.804477,"long":-122.427021,"type":"BigCompany"},{"category_code":"games_video","founded_year":2008,"name":"stickychicken","number_of_employees":2.0,"country":"USA","city":"San Francisco","lat":37.775196,"long":-122.419204,"type":"Startup"},{"category_code":"games_video","founded_year":2007,"name":"Zankapfel","number_of_employees":2.0,"country":"DEU","city":"Munich","lat":48.122346,"long":11.558864,"type":"BigCompany"},{"category_code":"software","founded_year":2006,"name":"Zogix","number_of_employees":2.0,"country":"GBR","city":"","lat":51.762918,"long":-0.56253,"type":"BigCompany"},{"category_code":"games_video","founded_year":2004,"name":"Beep Interactive","number_of_employees":2.0,"country":"AUS","city":"Melbourne","lat":-37.814251,"long":144.963169,"type":"BigCompany"},{"category_code":"games_video","founded_year":2007,"name":"FeedFlix","number_of_employees":2.0,"country":"USA","city":"Sunnyvale","lat":37.35351,"long":-122.030476,"type":"BigCompany"},{"category_code":"software","founded_year":2006,"name":"Symora Networks","number_of_employees":2.0,"country":"USA","city":"Birmingham","lat":33.466163,"long":-86.832419,"type":"BigCompany"},{"category_code":"games_video","founded_year":2006,"name":"WhatYah!","number_of_employees":2.0,"country":"AUS","city":"Perth","lat":-41.565586,"long":147.196096,"type":"BigCompany"},{"category_code":"software","founded_year":2005,"name":"NativeBroadcast","number_of_employees":2.0,"country":"USA","city":"Brookeville","lat":39.22093,"long":-77.056079,"type":"BigCompany"},{"category_code":"software","founded_year":2007,"name":"Fixie","number_of_employees":2.0,"country":"USA","city":"Seattle","lat":47.6042792,"long":-122.3374372,"type":"BigCompany"},{"category_code":"software","founded_year":2008,"name":"Qovax","number_of_employees":2.0,"country":"USA","city":"Agoura Hills","lat":34.146149,"long":-118.761265,"type":"Startup"},{"category_code":"games_video","founded_year":2007,"name":"Jootware","number_of_employees":2.0,"country":"USA","city":"Seattle","lat":47.6141,"long":-122.33763,"type":"BigCompany"},{"category_code":"software","founded_year":2007,"name":"CodeSense","number_of_employees":2.0,"country":"AUS","city":"Sydney","lat":-33.629723,"long":151.323938,"type":"BigCompany"},{"category_code":"software","founded_year":2007,"name":"Pogostick","number_of_employees":2.0,"country":"USA","city":"Atlanta","lat":33.841783,"long":-84.523571,"type":"BigCompany"},{"category_code":"software","founded_year":2007,"name":"Pogostick","number_of_employees":2.0,"country":"USA","city":"Atlanta","lat":33.841783,"long":-84.523571,"type":"BigCompany"},{"category_code":"software","founded_year":2008,"name":"Mobelux","number_of_employees":2.0,"country":"USA","city":"Richmond","lat":37.573792,"long":-77.37613,"type":"Startup"},{"category_code":"games_video","founded_year":2008,"name":"Denook","number_of_employees":2.0,"country":"USA","city":"Miami","lat":25.733027,"long":-80.432061,"type":"Startup"},{"category_code":"games_video","founded_year":2007,"name":"Plugola","number_of_employees":2.0,"country":"USA","city":"Chicago","lat":41.907542,"long":-87.66299,"type":"BigCompany"},{"category_code":"software","founded_year":2008,"name":"GoalsOnTrack","number_of_employees":2.0,"country":"CAN","city":"Langley","lat":49.1261967,"long":-122.6643702,"type":"Startup"},{"category_code":"games_video","founded_year":2007,"name":"Kompoz","number_of_employees":2.0,"country":"USA","city":"Miami","lat":25.6482589,"long":-80.3399908,"type":"BigCompany"},{"category_code":"games_video","founded_year":2006,"name":"Book a Lesson","number_of_employees":2.0,"country":"USA","city":"Minneapolis","lat":44.923088,"long":-93.34806,"type":"BigCompany"},{"category_code":"software","founded_year":2006,"name":"DrClick","number_of_employees":2.0,"country":"POL","city":"Krak\u00c3\u00b3w","lat":50.0767915,"long":19.9304799,"type":"BigCompany"},{"category_code":"games_video","founded_year":2008,"name":"Know Your Venue","number_of_employees":2.0,"country":"USA","city":"Tampa","lat":27.98141,"long":-82.451141,"type":"Startup"},{"category_code":"games_video","founded_year":2008,"name":"FilmSuggest","number_of_employees":2.0,"country":"USA","city":"Oakland","lat":37.81098,"long":-122.265978,"type":"Startup"},{"category_code":"games_video","founded_year":2007,"name":"Fotohoo","number_of_employees":2.0,"country":"USA","city":"New York","lat":40.756054,"long":-73.986951,"type":"BigCompany"},{"category_code":"software","founded_year":2008,"name":"xzapps","number_of_employees":2.0,"country":"USA","city":"Old Bridge","lat":37.7181398,"long":-122.4863492,"type":"Startup"},{"category_code":"games_video","founded_year":2008,"name":"Remixin","number_of_employees":2.0,"country":"USA","city":"Beverly Hills","lat":34.066118,"long":-118.378606,"type":"Startup"},{"category_code":"software","founded_year":2008,"name":"eShark Network","number_of_employees":2.0,"country":"USA","city":"Warminster","lat":40.197932,"long":-75.099101,"type":"Startup"},{"category_code":"software","founded_year":2007,"name":"Beyond NG","number_of_employees":2.0,"country":"AUS","city":"","lat":-33.916323,"long":151.210048,"type":"BigCompany"},{"category_code":"software","founded_year":2006,"name":"Fanurio Time Tracking","number_of_employees":2.0,"country":"NLD","city":"Amstelveen","lat":52.3121338,"long":4.8697724,"type":"BigCompany"},{"category_code":"software","founded_year":2008,"name":"Mapplr","number_of_employees":2.0,"country":"NLD","city":"Amsterdam","lat":52.3722556,"long":4.8864897,"type":"Startup"},{"category_code":"software","founded_year":2008,"name":"EchoCurrent Software","number_of_employees":2.0,"country":"USA","city":"New Boston","lat":42.942287,"long":-71.672268,"type":"Startup"},{"category_code":"games_video","founded_year":2007,"name":"Blip'd","number_of_employees":2.0,"country":"USA","city":"Los Angeles","lat":34.0760614,"long":-118.3729534,"type":"BigCompany"},{"category_code":"games_video","founded_year":2007,"name":"Visual Avenue","number_of_employees":2.0,"country":"USA","city":"Fair Lawn","lat":40.9416904,"long":-74.1260363,"type":"BigCompany"},{"category_code":"software","founded_year":2007,"name":"Excellentia Software","number_of_employees":2.0,"country":"USA","city":"Belen","lat":34.62779,"long":-106.8234016,"type":"BigCompany"},{"category_code":"software","founded_year":2006,"name":"Onthegig","number_of_employees":2.0,"country":"USA","city":"Philadelphia","lat":39.9493801,"long":-75.145782,"type":"BigCompany"},{"category_code":"software","founded_year":2008,"name":"Pixlr","number_of_employees":2.0,"country":"SWE","city":"Stockholm","lat":59.3327881,"long":18.0644881,"type":"Startup"},{"category_code":"software","founded_year":2008,"name":"Funnela","number_of_employees":2.0,"country":"POL","city":"Pozna\u00c5\u201e","lat":52.298342,"long":16.8489579,"type":"Startup"},{"category_code":"games_video","founded_year":2008,"name":"Fictionaut","number_of_employees":2.0,"country":"USA","city":"Astoria","lat":40.7597951,"long":-73.9161267,"type":"Startup"},{"category_code":"games_video","founded_year":2007,"name":"My TV Shows","number_of_employees":2.0,"country":"PRT","city":"Lisbon","lat":38.7523672,"long":-9.1462209,"type":"BigCompany"},{"category_code":"games_video","founded_year":2007,"name":"Contrastream","number_of_employees":1.0,"country":"CAN","city":"Toronto","lat":43.799511,"long":-79.348037,"type":"BigCompany"},{"category_code":"software","founded_year":2005,"name":"Sxoop Technologies","number_of_employees":1.0,"country":"IRL","city":"Cork","lat":51.8892282,"long":-8.5240303,"type":"BigCompany"},{"category_code":"games_video","founded_year":2007,"name":"Sporting Connections","number_of_employees":1.0,"country":"AUS","city":"Maroochydore","lat":-26.665908,"long":153.088303,"type":"BigCompany"},{"category_code":"games_video","founded_year":2007,"name":"Myplaylist","number_of_employees":1.0,"country":"IND","city":"","lat":20.593684,"long":78.96288,"type":"BigCompany"},{"category_code":"software","founded_year":2007,"name":"Open Source Living","number_of_employees":1.0,"country":"GBR","city":"London","lat":51.500152,"long":-0.126236,"type":"BigCompany"},{"category_code":"software","founded_year":2006,"name":"Wordie","number_of_employees":1.0,"country":"USA","city":"Highland Park","lat":40.493685,"long":-74.42896,"type":"BigCompany"},{"category_code":"games_video","founded_year":2008,"name":"twit+","number_of_employees":1.0,"country":"GBR","city":"Corby","lat":52.472029,"long":-0.698361,"type":"Startup"},{"category_code":"software","founded_year":2008,"name":"Ovologic","number_of_employees":1.0,"country":"CAN","city":"Qu\u00c3\u00a9bec","lat":46.898577,"long":-71.20097,"type":"Startup"},{"category_code":"software","founded_year":2007,"name":"Monkey in your Soul","number_of_employees":1.0,"country":"CAN","city":"Toronto","lat":43.670233,"long":-79.386755,"type":"BigCompany"},{"category_code":"software","founded_year":2007,"name":"postica","number_of_employees":1.0,"country":"CAN","city":"Toronto","lat":43.67736,"long":-79.31364,"type":"BigCompany"},{"category_code":"games_video","founded_year":2006,"name":"Jungle Jam Tv","number_of_employees":1.0,"country":"ITA","city":"Bologna","lat":44.494446,"long":11.349231,"type":"BigCompany"},{"category_code":"games_video","founded_year":2008,"name":"Faneebo","number_of_employees":1.0,"country":"USA","city":"Moreno Valley","lat":33.921969,"long":-117.249376,"type":"Startup"},{"category_code":"software","founded_year":2006,"name":"Are You Watching This?!","number_of_employees":1.0,"country":"USA","city":"Austin","lat":30.292804,"long":-97.737368,"type":"BigCompany"},{"category_code":"software","founded_year":2008,"name":"Ninth Yard","number_of_employees":1.0,"country":"USA","city":"Omaha","lat":30.268735,"long":-97.745209,"type":"Startup"},{"category_code":"games_video","founded_year":2008,"name":"World Wide Talent Search","number_of_employees":1.0,"country":"USA","city":"Providence","lat":41.83,"long":-71.41,"type":"Startup"},{"category_code":"games_video","founded_year":2007,"name":"Sportstation","number_of_employees":1.0,"country":"GBR","city":"Amersham","lat":51.678254,"long":-0.572355,"type":"BigCompany"},{"category_code":"software","founded_year":2006,"name":"Zentu","number_of_employees":1.0,"country":"USA","city":"Menlo Park","lat":37.448491,"long":-122.180281,"type":"BigCompany"},{"category_code":"games_video","founded_year":2008,"name":"Groopi","number_of_employees":1.0,"country":"GBR","city":"Newbury","lat":51.417565,"long":-1.313068,"type":"Startup"},{"category_code":"games_video","founded_year":2008,"name":"twit+","number_of_employees":1.0,"country":"GBR","city":"Corby","lat":52.472029,"long":-0.698361,"type":"Startup"},{"category_code":"games_video","founded_year":2007,"name":"360 Sports Software","number_of_employees":1.0,"country":"USA","city":"Levittown","lat":40.72267,"long":-73.518183,"type":"BigCompany"},{"category_code":"games_video","founded_year":2008,"name":"Groopi","number_of_employees":1.0,"country":"GBR","city":"Newbury","lat":51.417565,"long":-1.313068,"type":"Startup"},{"category_code":"games_video","founded_year":2008,"name":"twit+","number_of_employees":1.0,"country":"GBR","city":"Corby","lat":52.472029,"long":-0.698361,"type":"Startup"},{"category_code":"games_video","founded_year":2007,"name":"360 Sports Software","number_of_employees":1.0,"country":"USA","city":"Levittown","lat":40.72267,"long":-73.518183,"type":"BigCompany"},{"category_code":"software","founded_year":2008,"name":"PornLikeThat","number_of_employees":1.0,"country":"CAN","city":"Quebec","lat":46.812754,"long":-71.215223,"type":"Startup"},{"category_code":"software","founded_year":2008,"name":"148Apps","number_of_employees":1.0,"country":"USA","city":"San Francisco","lat":37.775196,"long":-122.419204,"type":"Startup"},{"category_code":"software","founded_year":2007,"name":"Galgal Sytems","number_of_employees":1.0,"country":"USA","city":"Boulder","lat":40.047299,"long":-105.253093,"type":"BigCompany"},{"category_code":"games_video","founded_year":2010,"name":"Tengaged","number_of_employees":1.0,"country":"ESP","city":"Barcelona","lat":41.4241228,"long":2.1634249,"type":"Startup"},{"category_code":"software","founded_year":2008,"name":"FutureTap","number_of_employees":1.0,"country":"DEU","city":"Seefeld","lat":48.0387806,"long":11.1974291,"type":"Startup"},{"category_code":"software","founded_year":2008,"name":"Implied Solutions","number_of_employees":1.0,"country":"USA","city":"Seattle","lat":47.6042663,"long":-122.3328401,"type":"Startup"},{"category_code":"games_video","founded_year":2008,"name":"Jobvue","number_of_employees":1.0,"country":"USA","city":"Copley","lat":41.1208235,"long":-81.6643523,"type":"Startup"},{"category_code":"software","founded_year":2007,"name":"Electronic Media Publishing","number_of_employees":1.0,"country":"USA","city":"St. Louis","lat":38.570681,"long":-90.490704,"type":"BigCompany"},{"category_code":"software","founded_year":2010,"name":"kinDragon","number_of_employees":1.0,"country":"USA","city":"Sarasota","lat":27.4081935,"long":-82.5294065,"type":"Startup"},{"category_code":"software","founded_year":2008,"name":"Wine by the Bar","number_of_employees":1.0,"country":"USA","city":"Cary","lat":35.820177,"long":-78.792841,"type":"Startup"},{"category_code":"software","founded_year":2008,"name":"Scrobl","number_of_employees":1.0,"country":"UKR","city":"Kiev","lat":50.453629,"long":30.503828,"type":"Startup"},{"category_code":"software","founded_year":2009,"name":"crush tweet","number_of_employees":1.0,"country":"USA","city":"dallas","lat":32.920073,"long":-96.740444,"type":"Startup"},{"category_code":"software","founded_year":2008,"name":"Knag Enterprises","number_of_employees":1.0,"country":"USA","city":"Boulder","lat":40.013336,"long":-105.270527,"type":"Startup"},{"category_code":"games_video","founded_year":2009,"name":"Gameleaper","number_of_employees":1.0,"country":"USA","city":"Dallas","lat":32.8270045,"long":-96.8432224,"type":"Startup"},{"category_code":"games_video","founded_year":2011,"name":"Hayen Company","number_of_employees":1.0,"country":"USA","city":"Columbia","lat":34.019114,"long":-81.004871,"type":"Startup"},{"category_code":"software","founded_year":2009,"name":"Book'd","number_of_employees":1.0,"country":"USA","city":"Columbia","lat":38.9569894,"long":-92.3227556,"type":"Startup"},{"category_code":"games_video","founded_year":2008,"name":"Multiso Multimedia Solutions","number_of_employees":1.0,"country":"SVN","city":"Celje","lat":46.2347396,"long":15.2591055,"type":"Startup"},{"category_code":"games_video","founded_year":2006,"name":"Joost","number_of_employees":0.0,"country":"USA","city":"New York","lat":40.7464969,"long":-74.0094471,"type":"BigCompany"},{"category_code":"games_video","founded_year":2005,"name":"YouTube","number_of_employees":0.0,"country":"USA","city":"San Bruno","lat":37.627971,"long":-122.426804,"type":"BigCompany"},{"category_code":"games_video","founded_year":2006,"name":"CastTV","number_of_employees":0.0,"country":"USA","city":"San Francisco","lat":37.780716,"long":-122.393913,"type":"BigCompany"},{"category_code":"software","founded_year":2005,"name":"Attributor","number_of_employees":0.0,"country":"USA","city":"San Mateo","lat":37.453687,"long":-122.228595,"type":"BigCompany"},{"category_code":"games_video","founded_year":2007,"name":"MediaPops","number_of_employees":0.0,"country":"USA","city":"Seattle","lat":47.611012,"long":-122.333523,"type":"BigCompany"},{"category_code":"software","founded_year":2006,"name":"Xobni","number_of_employees":0.0,"country":"USA","city":"San Francisco","lat":37.789634,"long":-122.404052,"type":"BigCompany"},{"category_code":"games_video","founded_year":2006,"name":"EkkoTV","number_of_employees":0.0,"country":"USA","city":"Sunnyvale","lat":37.369195,"long":-122.036849,"type":"BigCompany"},{"category_code":"games_video","founded_year":2008,"name":"Newsclipper","number_of_employees":0.0,"country":"USA","city":"","lat":37.269175,"long":-119.306607,"type":"Startup"},{"category_code":"software","founded_year":2008,"name":"MetaSieve","number_of_employees":0.0,"country":"DEU","city":"Bochum","lat":51.4453516,"long":7.25795,"type":"Startup"},{"category_code":"games_video","founded_year":2008,"name":"Why Hasn't He?","number_of_employees":0.0,"country":"USA","city":"New York City","lat":40.7703479,"long":-73.9914834,"type":"Startup"},{"category_code":"software","founded_year":2008,"name":"Paydro","number_of_employees":0.0,"country":"NLD","city":"Amsterdam","lat":52.3646031,"long":4.8926966,"type":"Startup"},{"category_code":"games_video","founded_year":2004,"name":"Veoh","number_of_employees":null,"country":"USA","city":"San Diego","lat":32.902266,"long":-117.20834,"type":"BigCompany"},{"category_code":"games_video","founded_year":2006,"name":"blogTV","number_of_employees":null,"country":"ISR","city":"Ramat Gan","lat":31.046051,"long":34.851612,"type":"BigCompany"},{"category_code":"games_video","founded_year":2005,"name":"Revision3","number_of_employees":null,"country":"USA","city":"San Francisco","lat":37.757758,"long":-122.388243,"type":"BigCompany"},{"category_code":"games_video","founded_year":2007,"name":"Funny Or Die","number_of_employees":null,"country":"USA","city":"San Mateo","lat":37.421621,"long":-122.137444,"type":"BigCompany"},{"category_code":"games_video","founded_year":2004,"name":"blinkx","number_of_employees":null,"country":"USA","city":"San Francisco","lat":37.793819,"long":-122.395089,"type":"BigCompany"},{"category_code":"software","founded_year":2005,"name":"GoLightly","number_of_employees":null,"country":"USA","city":"Mill Valley","lat":37.898575,"long":-122.537302,"type":"BigCompany"},{"category_code":"games_video","founded_year":2005,"name":"PodTech","number_of_employees":null,"country":"USA","city":"Palo Alto","lat":37.408256,"long":-122.154176,"type":"BigCompany"},{"category_code":"games_video","founded_year":2004,"name":"Crackle","number_of_employees":null,"country":"USA","city":"Culver City","lat":34.017506,"long":-118.401579,"type":"BigCompany"},{"category_code":"games_video","founded_year":2006,"name":"WallStrip","number_of_employees":null,"country":"USA","city":null,"lat":37.09024,"long":-95.712891,"type":"BigCompany"},{"category_code":"games_video","founded_year":2004,"name":"Mevio","number_of_employees":null,"country":"USA","city":"San Francisco","lat":37.782263,"long":-122.392142,"type":"BigCompany"},{"category_code":"games_video","founded_year":2007,"name":"sezmi","number_of_employees":null,"country":"USA","city":"Belmont","lat":37.524422,"long":-122.265869,"type":"BigCompany"},{"category_code":"software","founded_year":2006,"name":"SnapTell","number_of_employees":null,"country":"USA","city":"Palo Alto","lat":37.433414,"long":-122.128772,"type":"BigCompany"},{"category_code":"software","founded_year":2005,"name":"Zerofootprint","number_of_employees":null,"country":"CAN","city":"Toronto","lat":43.6501051,"long":-79.396805,"type":"BigCompany"},{"category_code":"games_video","founded_year":2007,"name":"ChessPark","number_of_employees":null,"country":"USA","city":"West Palm Beach","lat":43.67084,"long":-83.913153,"type":"BigCompany"},{"category_code":"games_video","founded_year":2006,"name":"PlaySpan","number_of_employees":null,"country":"USA","city":"Santa Clara","lat":37.396312,"long":-121.961396,"type":"BigCompany"},{"category_code":"games_video","founded_year":2005,"name":"RayV","number_of_employees":null,"country":"USA","city":"New York","lat":40.781159,"long":-73.978332,"type":"BigCompany"},{"category_code":"games_video","founded_year":2006,"name":"blinkbox","number_of_employees":null,"country":"GBR","city":"London","lat":51.520779,"long":-0.10759,"type":"BigCompany"},{"category_code":"games_video","founded_year":2007,"name":"Jango","number_of_employees":null,"country":"USA","city":"New York","lat":40.757929,"long":-73.985506,"type":"BigCompany"},{"category_code":"games_video","founded_year":2007,"name":"Qloud","number_of_employees":null,"country":"USA","city":"Silver Spring","lat":39.016745,"long":-77.023821,"type":"BigCompany"},{"category_code":"software","founded_year":2006,"name":"Vringo","number_of_employees":null,"country":"USA","city":"New York","lat":40.7550005,"long":-73.9717364,"type":"BigCompany"},{"category_code":"software","founded_year":2006,"name":"TrackVia","number_of_employees":null,"country":"USA","city":"Denver","lat":39.738499,"long":-105.158645,"type":"BigCompany"},{"category_code":"games_video","founded_year":2006,"name":"Motionbox","number_of_employees":null,"country":"USA","city":"New York","lat":40.606061,"long":-73.822331,"type":"BigCompany"},{"category_code":"games_video","founded_year":2004,"name":"PlayFirst","number_of_employees":null,"country":"USA","city":"San Francisco","lat":37.790346,"long":-122.40185,"type":"BigCompany"},{"category_code":"games_video","founded_year":2006,"name":"Delve Networks","number_of_employees":null,"country":"USA","city":"Seattle","lat":47.600818,"long":-122.334117,"type":"BigCompany"},{"category_code":"software","founded_year":2004,"name":"SugarCRM","number_of_employees":null,"country":"USA","city":"Cupertino","lat":37.323739,"long":-122.014147,"type":"BigCompany"},{"category_code":"games_video","founded_year":2007,"name":"Outspark","number_of_employees":null,"country":"USA","city":"San Francisco","lat":37.775196,"long":-122.419204,"type":"BigCompany"},{"category_code":"games_video","founded_year":2006,"name":"YouPorn","number_of_employees":null,"country":"USA","city":"","lat":37.09024,"long":-95.712891,"type":"BigCompany"},{"category_code":"games_video","founded_year":2005,"name":"Spout","number_of_employees":null,"country":"USA","city":"Grand Rapids","lat":42.964911,"long":-85.6704213,"type":"BigCompany"},{"category_code":"games_video","founded_year":2006,"name":"idiomag","number_of_employees":null,"country":"GBR","city":"London","lat":51.500152,"long":-0.126236,"type":"BigCompany"},{"category_code":"software","founded_year":2007,"name":"doubleTwist","number_of_employees":null,"country":"USA","city":"San Francisco","lat":37.775196,"long":-122.419204,"type":"BigCompany"},{"category_code":"software","founded_year":2006,"name":"Echobit","number_of_employees":null,"country":"USA","city":"Minneapolis","lat":44.977482,"long":-93.264351,"type":"BigCompany"},{"category_code":"games_video","founded_year":2007,"name":"Raptr","number_of_employees":null,"country":"USA","city":"Mountain View","lat":37.40384,"long":-122.07808,"type":"BigCompany"},{"category_code":"software","founded_year":2006,"name":"HealtheHuman","number_of_employees":null,"country":"USA","city":"Del Mar","lat":34.423403,"long":-119.704416,"type":"BigCompany"},{"category_code":"software","founded_year":2008,"name":"ProofHQ","number_of_employees":null,"country":"GBR","city":"London","lat":51.5320478,"long":-0.011154,"type":"BigCompany"},{"category_code":"games_video","founded_year":2004,"name":"Generate","number_of_employees":null,"country":"USA","city":"Santa Monica","lat":34.031328,"long":-118.471463,"type":"BigCompany"},{"category_code":"software","founded_year":2006,"name":"Feng-GUI","number_of_employees":null,"country":"ISR","city":"Tel Aviv","lat":32.0554,"long":34.7595,"type":"BigCompany"},{"category_code":"games_video","founded_year":2007,"name":"SportsUltra","number_of_employees":null,"country":"USA","city":"Seattle","lat":47.693994,"long":-122.349701,"type":"BigCompany"},{"category_code":"games_video","founded_year":2008,"name":"politicsultra","number_of_employees":null,"country":"USA","city":"Seattle","lat":47.693994,"long":-122.349701,"type":"BigCompany"},{"category_code":"software","founded_year":2008,"name":"AppPad","number_of_employees":null,"country":"USA","city":"Sacramento","lat":38.583952,"long":-121.491028,"type":"BigCompany"},{"category_code":"software","founded_year":2004,"name":"Star Analytics","number_of_employees":null,"country":"USA","city":"San Mateo","lat":37.556152,"long":-122.281484,"type":"BigCompany"},{"category_code":"games_video","founded_year":2007,"name":"Playfish","number_of_employees":null,"country":"GBR","city":"London","lat":51.4991094,"long":-0.1984802,"type":"BigCompany"},{"category_code":"games_video","founded_year":2007,"name":"Dotsub","number_of_employees":null,"country":"USA","city":"New York","lat":40.7680901,"long":-73.9566761,"type":"BigCompany"},{"category_code":"games_video","founded_year":2007,"name":"Slicethepie","number_of_employees":null,"country":"GBR","city":"","lat":55.378051,"long":-3.435973,"type":"BigCompany"},{"category_code":"games_video","founded_year":2009,"name":"Handipoints","number_of_employees":null,"country":"USA","city":"Oakland","lat":37.772323,"long":-122.214897,"type":"BigCompany"},{"category_code":"games_video","founded_year":2006,"name":"Cozimo","number_of_employees":null,"country":"USA","city":"Berkeley","lat":37.879726,"long":-122.298015,"type":"BigCompany"},{"category_code":"software","founded_year":2007,"name":"Kannuu","number_of_employees":null,"country":"USA","city":"Dallas","lat":32.9249424,"long":-96.7679229,"type":"BigCompany"},{"category_code":"games_video","founded_year":2008,"name":"Rosterbot","number_of_employees":null,"country":"CAN","city":"Vancouver","lat":49.2767775,"long":-123.1210616,"type":"BigCompany"},{"category_code":"software","founded_year":2005,"name":"Q-Layer","number_of_employees":null,"country":"BEL","city":"Lochristi","lat":51.070829,"long":3.771122,"type":"BigCompany"},{"category_code":"games_video","founded_year":2007,"name":"Topspin Media","number_of_employees":null,"country":"USA","city":"Santa Monica","lat":34.02634,"long":-118.477689,"type":"BigCompany"},{"category_code":"games_video","founded_year":2008,"name":"Guitarati","number_of_employees":null,"country":"USA","city":"","lat":39.7393,"long":-89.266508,"type":"BigCompany"},{"category_code":"games_video","founded_year":2008,"name":"Teet","number_of_employees":null,"country":"LVA","city":"","lat":56.879635,"long":24.603189,"type":"BigCompany"},{"category_code":"software","founded_year":2007,"name":"Park Sidekick","number_of_employees":null,"country":"USA","city":"Springboro","lat":39.571363,"long":-84.231449,"type":"BigCompany"},{"category_code":"games_video","founded_year":2007,"name":"NEHST Studios","number_of_employees":null,"country":"USA","city":"New York","lat":40.75451,"long":-73.992193,"type":"BigCompany"},{"category_code":"software","founded_year":2006,"name":"Iminent","number_of_employees":null,"country":"FRA","city":"Paris","lat":48.8522431,"long":2.387422,"type":"BigCompany"},{"category_code":"software","founded_year":2007,"name":"INTSPEI","number_of_employees":null,"country":"USA","city":"Lake Success","lat":40.754839,"long":-73.693125,"type":"BigCompany"},{"category_code":"games_video","founded_year":2007,"name":"Drop Magazine","number_of_employees":null,"country":"USA","city":"Detroit\/NYC","lat":40.543996,"long":-74.179231,"type":"BigCompany"},{"category_code":"software","founded_year":2006,"name":"Exago","number_of_employees":null,"country":"USA","city":"Shelton","lat":41.277716,"long":-73.126408,"type":"BigCompany"},{"category_code":"games_video","founded_year":2006,"name":"Oortle","number_of_employees":null,"country":"USA","city":"","lat":37.269175,"long":-119.306607,"type":"BigCompany"},{"category_code":"games_video","founded_year":2007,"name":"URockHard","number_of_employees":null,"country":"USA","city":"","lat":34.0424511,"long":-84.2756367,"type":"BigCompany"},{"category_code":"games_video","founded_year":2006,"name":"MyAnimeList","number_of_employees":null,"country":"USA","city":"Yorba Linda","lat":33.887112,"long":-117.729229,"type":"BigCompany"},{"category_code":"software","founded_year":2006,"name":"Jwaala","number_of_employees":null,"country":"USA","city":"Austin","lat":30.387069,"long":-97.703656,"type":"BigCompany"},{"category_code":"software","founded_year":2007,"name":"HyperCalc","number_of_employees":null,"country":"USA","city":"New York","lat":40.757929,"long":-73.985506,"type":"BigCompany"},{"category_code":"games_video","founded_year":2007,"name":"GodTube","number_of_employees":null,"country":"USA","city":"Plano","lat":33.075067,"long":-96.823962,"type":"BigCompany"},{"category_code":"software","founded_year":2006,"name":"Tabbery","number_of_employees":null,"country":"USA","city":"New York","lat":40.732525,"long":-73.990076,"type":"BigCompany"},{"category_code":"software","founded_year":2006,"name":"Conenza","number_of_employees":null,"country":"USA","city":"Seattle","lat":47.603176,"long":-122.3333044,"type":"BigCompany"},{"category_code":"games_video","founded_year":2006,"name":"OVGuide","number_of_employees":null,"country":"USA","city":"Los Angeles","lat":34.052187,"long":-118.243425,"type":"BigCompany"},{"category_code":"games_video","founded_year":2006,"name":"amazingtunes","number_of_employees":null,"country":"GBR","city":"Newcastle Upon Tyne","lat":54.971346,"long":-1.611141,"type":"BigCompany"},{"category_code":"games_video","founded_year":2008,"name":"RouteNote","number_of_employees":null,"country":"GBR","city":"Redruth","lat":50.231464,"long":-5.236903,"type":"BigCompany"},{"category_code":"games_video","founded_year":2006,"name":"Hobnox","number_of_employees":null,"country":"DEU","city":"Munich","lat":48.1607175,"long":11.553749,"type":"BigCompany"},{"category_code":"games_video","founded_year":2008,"name":"Wuapi","number_of_employees":null,"country":"ESP","city":"Barcelona","lat":41.387917,"long":2.169919,"type":"BigCompany"},{"category_code":"software","founded_year":2007,"name":"Webconverger","number_of_employees":null,"country":"GBR","city":"","lat":55.378051,"long":-3.435973,"type":"BigCompany"},{"category_code":"games_video","founded_year":2008,"name":"YouTomb","number_of_employees":null,"country":"USA","city":"Cambridge","lat":42.375392,"long":-71.118487,"type":"BigCompany"},{"category_code":"games_video","founded_year":2005,"name":"Moblyng","number_of_employees":null,"country":"USA","city":"Redwood City","lat":37.453665,"long":-122.229069,"type":"BigCompany"},{"category_code":"software","founded_year":2005,"name":"Jitterbit","number_of_employees":null,"country":"USA","city":"Oakland","lat":37.808884,"long":-122.264562,"type":"BigCompany"},{"category_code":"games_video","founded_year":2004,"name":"PurePlay","number_of_employees":null,"country":"USA","city":"San Francisco","lat":37.775196,"long":-122.419204,"type":"BigCompany"},{"category_code":"software","founded_year":2007,"name":"Fotegrafik","number_of_employees":null,"country":"SGP","city":"","lat":1.352083,"long":103.819836,"type":"BigCompany"},{"category_code":"games_video","founded_year":2005,"name":"IndieFlix","number_of_employees":null,"country":"USA","city":"Seattle","lat":47.634731,"long":-122.27962,"type":"BigCompany"},{"category_code":"games_video","founded_year":2007,"name":"Cam-Trax Technologies","number_of_employees":null,"country":"ISR","city":"Ramat Gan","lat":31.046051,"long":34.851612,"type":"BigCompany"},{"category_code":"software","founded_year":2005,"name":"B-hive Networks","number_of_employees":null,"country":"USA","city":"San Mateo","lat":37.536402,"long":-122.325129,"type":"BigCompany"},{"category_code":"games_video","founded_year":2008,"name":"snuzu","number_of_employees":null,"country":"USA","city":"New Haven","lat":41.3083,"long":-72.9287,"type":"BigCompany"},{"category_code":"software","founded_year":2006,"name":"Cypal Solutions","number_of_employees":null,"country":"IND","city":"","lat":20.593684,"long":78.96288,"type":"BigCompany"},{"category_code":"software","founded_year":2007,"name":"Backblaze","number_of_employees":null,"country":"USA","city":"Palo Alto","lat":37.44296,"long":-122.151198,"type":"BigCompany"},{"category_code":"games_video","founded_year":2008,"name":"TriFame","number_of_employees":null,"country":"USA","city":"","lat":27.698682,"long":-83.804475,"type":"BigCompany"},{"category_code":"games_video","founded_year":2007,"name":"bendecho","number_of_employees":null,"country":"DEU","city":"Munich","lat":48.185529,"long":11.603542,"type":"BigCompany"},{"category_code":"games_video","founded_year":2005,"name":"TuneCore","number_of_employees":null,"country":"USA","city":"Brooklyn","lat":40.704382,"long":-73.986572,"type":"BigCompany"},{"category_code":"games_video","founded_year":2007,"name":"Dizzywood","number_of_employees":null,"country":"USA","city":"","lat":37.269175,"long":-119.306607,"type":"BigCompany"},{"category_code":"software","founded_year":2007,"name":"BumpTop","number_of_employees":null,"country":"CAN","city":"Toronto","lat":43.648786,"long":-79.3777473,"type":"BigCompany"},{"category_code":"software","founded_year":2005,"name":"Betaface","number_of_employees":null,"country":"DEU","city":"Munich","lat":48.1356316,"long":11.5474791,"type":"BigCompany"},{"category_code":"software","founded_year":2004,"name":"Codefast","number_of_employees":null,"country":"USA","city":"San Jose","lat":37.316466,"long":-121.873881,"type":"BigCompany"},{"category_code":"software","founded_year":2006,"name":"Grid Net","number_of_employees":null,"country":"USA","city":"San Francisco","lat":37.781265,"long":-122.393229,"type":"BigCompany"},{"category_code":"software","founded_year":2004,"name":"Hyperic","number_of_employees":null,"country":"USA","city":"Palo Alto","lat":37.4027811,"long":-122.1441615,"type":"BigCompany"},{"category_code":"games_video","founded_year":2009,"name":"Vusion","number_of_employees":null,"country":"USA","city":"Milpitas","lat":37.412069,"long":-121.900366,"type":"BigCompany"},{"category_code":"games_video","founded_year":2004,"name":"Stardoll","number_of_employees":null,"country":"SWE","city":"Stockholm","lat":59.345553,"long":18.037611,"type":"BigCompany"},{"category_code":"software","founded_year":2004,"name":"SpikeSource","number_of_employees":null,"country":"USA","city":"Mountain View","lat":37.510805,"long":-122.203744,"type":"BigCompany"},{"category_code":"software","founded_year":2005,"name":"Nalpeiron","number_of_employees":null,"country":"USA","city":"Palo Alto","lat":37.4498742,"long":-122.1209066,"type":"BigCompany"},{"category_code":"games_video","founded_year":2006,"name":"Veeple","number_of_employees":null,"country":"USA","city":"Palo Alto","lat":37.421142,"long":-122.101182,"type":"BigCompany"},{"category_code":"software","founded_year":2008,"name":"Pluribo","number_of_employees":null,"country":"USA","city":"New York","lat":40.751293,"long":-73.978887,"type":"BigCompany"},{"category_code":"games_video","founded_year":2007,"name":"Spill","number_of_employees":null,"country":"USA","city":"New York","lat":40.72616,"long":-74.006023,"type":"BigCompany"},{"category_code":"software","founded_year":2010,"name":"OTOY","number_of_employees":null,"country":"USA","city":"Sherman Oaks","lat":34.15761,"long":-118.424058,"type":"BigCompany"},{"category_code":"software","founded_year":2008,"name":"itteco","number_of_employees":null,"country":"CAN","city":"Ottawa","lat":45.4202329,"long":-75.7015497,"type":"BigCompany"},{"category_code":"software","founded_year":2007,"name":"Flat World Knowledge","number_of_employees":null,"country":"USA","city":"Irvington","lat":41.091306,"long":-73.923422,"type":"BigCompany"},{"category_code":"software","founded_year":2004,"name":"Skorpiostech","number_of_employees":null,"country":"USA","city":"Phoenix","lat":33.448263,"long":-112.073821,"type":"BigCompany"},{"category_code":"software","founded_year":2007,"name":"Involver","number_of_employees":null,"country":"USA","city":"San Francisco","lat":37.788653,"long":-122.401333,"type":"BigCompany"},{"category_code":"games_video","founded_year":2006,"name":"Riot Games","number_of_employees":null,"country":"USA","city":"Culver City","lat":34.0025911,"long":-118.3942383,"type":"BigCompany"},{"category_code":"software","founded_year":2007,"name":"7syntax","number_of_employees":null,"country":"PRT","city":"Lisboa","lat":38.708239,"long":-9.143322,"type":"BigCompany"},{"category_code":"software","founded_year":2006,"name":"LiquidTalk","number_of_employees":null,"country":"USA","city":"Chicago","lat":41.831001,"long":-87.626918,"type":"BigCompany"},{"category_code":"software","founded_year":2005,"name":"Devshop","number_of_employees":null,"country":"CAN","city":"Ottawa, ON","lat":45.427672,"long":-75.693788,"type":"BigCompany"},{"category_code":"software","founded_year":2007,"name":"KinetiCast","number_of_employees":null,"country":"USA","city":"Coxsackie","lat":42.3617691,"long":-73.820407,"type":"BigCompany"},{"category_code":"software","founded_year":2004,"name":"Cherwell Software","number_of_employees":null,"country":"USA","city":"Colorado Springs","lat":39.010667,"long":-104.81628,"type":"BigCompany"},{"category_code":"software","founded_year":2006,"name":"CarbonFlow","number_of_employees":null,"country":"USA","city":"San Francsico","lat":37.779097,"long":-122.39365,"type":"BigCompany"},{"category_code":"software","founded_year":2006,"name":"Publictivity","number_of_employees":null,"country":"USA","city":"Palo Alto","lat":37.411846,"long":-122.1295,"type":"BigCompany"},{"category_code":"software","founded_year":2006,"name":"Novologies","number_of_employees":null,"country":"USA","city":"Brooklyn","lat":40.609762,"long":-73.910664,"type":"BigCompany"},{"category_code":"software","founded_year":2005,"name":"TeamViewer","number_of_employees":null,"country":"DEU","city":"G\u00c3\u00b6ppingen","lat":48.663046,"long":9.6777277,"type":"BigCompany"},{"category_code":"games_video","founded_year":2007,"name":"Anvato","number_of_employees":null,"country":"USA","city":"Mountain View","lat":37.400689,"long":-122.0572,"type":"BigCompany"},{"category_code":"software","founded_year":2007,"name":"Near Global","number_of_employees":null,"country":"GBR","city":"London","lat":51.549348,"long":-0.196592,"type":"BigCompany"},{"category_code":"software","founded_year":2005,"name":"XB Labs","number_of_employees":null,"country":"USA","city":"New York","lat":40.755329,"long":-73.991605,"type":"BigCompany"},{"category_code":"software","founded_year":2004,"name":"BeamYourScreen","number_of_employees":null,"country":"DEU","city":"Mannheim","lat":49.488999,"long":8.469606,"type":"BigCompany"},{"category_code":"software","founded_year":2005,"name":"dynaTrace software","number_of_employees":null,"country":"USA","city":"Waltham","lat":42.391389,"long":-71.270987,"type":"BigCompany"},{"category_code":"software","founded_year":2006,"name":"Hyper9","number_of_employees":null,"country":"USA","city":"Austin","lat":30.387353,"long":-97.753163,"type":"BigCompany"},{"category_code":"software","founded_year":2005,"name":"ZManda","number_of_employees":null,"country":"USA","city":"Sunnyvale","lat":37.3725243,"long":-122.035963,"type":"BigCompany"},{"category_code":"software","founded_year":2006,"name":"Envysion","number_of_employees":null,"country":"USA","city":"Louisville","lat":39.97764,"long":-105.13114,"type":"BigCompany"},{"category_code":"software","founded_year":2007,"name":"Postbox","number_of_employees":null,"country":"USA","city":"San Francisco","lat":37.758737,"long":-122.388336,"type":"BigCompany"},{"category_code":"software","founded_year":2005,"name":"PG Realty","number_of_employees":null,"country":"USA","city":"Las Vegas","lat":36.170206,"long":-115.0479,"type":"BigCompany"},{"category_code":"software","founded_year":2007,"name":"Fizmo","number_of_employees":null,"country":"USA","city":"Bellevue","lat":47.5760962,"long":-122.1691547,"type":"BigCompany"},{"category_code":"software","founded_year":2005,"name":"Connectbeam","number_of_employees":null,"country":"USA","city":"Mountain View","lat":37.401818,"long":-122.050565,"type":"BigCompany"},{"category_code":"games_video","founded_year":2011,"name":"Kidos","number_of_employees":null,"country":"USA","city":"New York","lat":40.768058,"long":-73.956599,"type":"BigCompany"},{"category_code":"software","founded_year":2007,"name":"Data Jelly","number_of_employees":null,"country":"USA","city":"Wilmington","lat":39.744919,"long":-75.549039,"type":"BigCompany"},{"category_code":"games_video","founded_year":2005,"name":"Hangout Industries","number_of_employees":null,"country":"USA","city":"Boston","lat":42.352835,"long":-71.0609612,"type":"BigCompany"},{"category_code":"software","founded_year":2006,"name":"Hyper9","number_of_employees":null,"country":"USA","city":"Austin","lat":30.387353,"long":-97.753163,"type":"BigCompany"},{"category_code":"software","founded_year":2005,"name":"ZManda","number_of_employees":null,"country":"USA","city":"Sunnyvale","lat":37.3725243,"long":-122.035963,"type":"BigCompany"},{"category_code":"software","founded_year":2006,"name":"Envysion","number_of_employees":null,"country":"USA","city":"Louisville","lat":39.97764,"long":-105.13114,"type":"BigCompany"},{"category_code":"software","founded_year":2007,"name":"Postbox","number_of_employees":null,"country":"USA","city":"San Francisco","lat":37.758737,"long":-122.388336,"type":"BigCompany"},{"category_code":"software","founded_year":2005,"name":"PG Realty","number_of_employees":null,"country":"USA","city":"Las Vegas","lat":36.170206,"long":-115.0479,"type":"BigCompany"},{"category_code":"software","founded_year":2007,"name":"Fizmo","number_of_employees":null,"country":"USA","city":"Bellevue","lat":47.5760962,"long":-122.1691547,"type":"BigCompany"},{"category_code":"software","founded_year":2005,"name":"Connectbeam","number_of_employees":null,"country":"USA","city":"Mountain View","lat":37.401818,"long":-122.050565,"type":"BigCompany"},{"category_code":"games_video","founded_year":2011,"name":"Kidos","number_of_employees":null,"country":"USA","city":"New York","lat":40.768058,"long":-73.956599,"type":"BigCompany"},{"category_code":"software","founded_year":2007,"name":"Data Jelly","number_of_employees":null,"country":"USA","city":"Wilmington","lat":39.744919,"long":-75.549039,"type":"BigCompany"},{"category_code":"games_video","founded_year":2005,"name":"Hangout Industries","number_of_employees":null,"country":"USA","city":"Boston","lat":42.352835,"long":-71.0609612,"type":"BigCompany"},{"category_code":"software","founded_year":2008,"name":"Conifer Systems","number_of_employees":null,"country":"USA","city":"Austin","lat":30.2669,"long":-97.7428,"type":"BigCompany"},{"category_code":"software","founded_year":2007,"name":"AdPropel","number_of_employees":null,"country":"USA","city":"Rancho Cordova","lat":38.590465,"long":-121.289777,"type":"BigCompany"},{"category_code":"games_video","founded_year":2008,"name":"Brightstorm","number_of_employees":null,"country":"USA","city":"San Francisco","lat":37.804619,"long":-122.371203,"type":"BigCompany"},{"category_code":"games_video","founded_year":2008,"name":"OUTSHOUTS","number_of_employees":null,"country":"USA","city":"Menlo Park","lat":37.48413,"long":-122.169472,"type":"BigCompany"},{"category_code":"software","founded_year":2005,"name":"KingsIsle Entertainment","number_of_employees":null,"country":"USA","city":"Plano","lat":33.038288,"long":-96.830084,"type":"BigCompany"},{"category_code":"games_video","founded_year":2008,"name":"Heatwave Interactive","number_of_employees":null,"country":"USA","city":"Austin","lat":30.297775,"long":-97.762921,"type":"BigCompany"},{"category_code":"games_video","founded_year":2010,"name":"Equedia","number_of_employees":null,"country":"CAN","city":"Vancouver","lat":49.2871668,"long":-123.1169693,"type":"BigCompany"},{"category_code":"games_video","founded_year":2005,"name":"MP3Tunes","number_of_employees":null,"country":"USA","city":"San Diego","lat":32.895267,"long":-117.191342,"type":"BigCompany"},{"category_code":"software","founded_year":2004,"name":"Tony Bain Group","number_of_employees":null,"country":"AUS","city":"Melbourne","lat":-37.813339,"long":144.970823,"type":"BigCompany"},{"category_code":"software","founded_year":2007,"name":"mufin","number_of_employees":null,"country":"DEU","city":"Berlin","lat":52.5090253,"long":13.3901319,"type":"BigCompany"},{"category_code":"software","founded_year":2006,"name":"Noesis Interactive","number_of_employees":null,"country":"USA","city":"Santa Cruz","lat":36.984632,"long":-121.980874,"type":"BigCompany"},{"category_code":"games_video","founded_year":2008,"name":"Booyah","number_of_employees":null,"country":"USA","city":"San Francisco","lat":37.420728,"long":-122.2103414,"type":"BigCompany"},{"category_code":"software","founded_year":2007,"name":"neulio","number_of_employees":null,"country":"USA","city":"Winter Springs","lat":28.689041,"long":-81.264465,"type":"BigCompany"},{"category_code":"games_video","founded_year":2005,"name":"Games2Win","number_of_employees":null,"country":"IND","city":"Tardeo,Mumbai","lat":18.9742904,"long":72.8127265,"type":"BigCompany"},{"category_code":"games_video","founded_year":2007,"name":"Awdio","number_of_employees":null,"country":"FRA","city":"Paris","lat":48.887534,"long":2.356288,"type":"BigCompany"},{"category_code":"games_video","founded_year":2006,"name":"inDplay","number_of_employees":null,"country":"USA","city":"Venice","lat":33.9905,"long":-118.4595,"type":"BigCompany"},{"category_code":"software","founded_year":2004,"name":"TRX Systems","number_of_employees":null,"country":"USA","city":"Greenbelt","lat":38.9916581,"long":-76.879257,"type":"BigCompany"},{"category_code":"games_video","founded_year":2005,"name":"One True Media","number_of_employees":null,"country":"USA","city":"Redwood City","lat":37.485824,"long":-122.212095,"type":"BigCompany"},{"category_code":"software","founded_year":2004,"name":"PeerApp","number_of_employees":null,"country":"USA","city":"Newton","lat":42.3127142,"long":-71.2252014,"type":"BigCompany"},{"category_code":"software","founded_year":2005,"name":"Imagine Communications","number_of_employees":null,"country":"USA","city":"San Diego","lat":32.9388917,"long":-117.2398594,"type":"BigCompany"},{"category_code":"software","founded_year":2006,"name":"CognoVision","number_of_employees":null,"country":"CAN","city":"Markham","lat":43.8548993,"long":-79.3683583,"type":"BigCompany"},{"category_code":"software","founded_year":2008,"name":"Bryton Media Group","number_of_employees":null,"country":"HUN","city":"Budapest","lat":47.532326,"long":19.088317,"type":"BigCompany"},{"category_code":"software","founded_year":2008,"name":":coderow","number_of_employees":null,"country":"USA","city":"Minneapolis","lat":44.949711,"long":-93.285186,"type":"BigCompany"},{"category_code":"software","founded_year":2007,"name":"Open Mountain","number_of_employees":null,"country":"USA","city":"San Francisco","lat":37.795276,"long":-122.429788,"type":"BigCompany"},{"category_code":"software","founded_year":2007,"name":"Gnoso","number_of_employees":null,"country":"USA","city":"Greenville","lat":34.9266023,"long":-82.2911144,"type":"BigCompany"},{"category_code":"games_video","founded_year":2007,"name":"BeatPick","number_of_employees":null,"country":"GBR","city":"London","lat":51.5001524,"long":-0.1262362,"type":"BigCompany"},{"category_code":"software","founded_year":2008,"name":"Connectize","number_of_employees":null,"country":"USA","city":"San Francisco","lat":37.775196,"long":-122.419204,"type":"BigCompany"},{"category_code":"software","founded_year":2008,"name":"PG Job Site Pro","number_of_employees":null,"country":"USA","city":"Las Vegas","lat":36.170206,"long":-115.0479,"type":"BigCompany"},{"category_code":"software","founded_year":2008,"name":"teambits","number_of_employees":null,"country":"DEU","city":"Darmstadt","lat":49.8707406,"long":8.6250184,"type":"BigCompany"},{"category_code":"games_video","founded_year":2008,"name":"Geocade","number_of_employees":null,"country":"USA","city":"Cambridge","lat":42.362856,"long":-71.083762,"type":"BigCompany"},{"category_code":"games_video","founded_year":2008,"name":"DanceShowoff","number_of_employees":null,"country":"USA","city":"Irvine","lat":33.671428,"long":-117.791423,"type":"BigCompany"},{"category_code":"games_video","founded_year":2008,"name":"GoGo Lingo","number_of_employees":null,"country":"USA","city":"Los Angeles","lat":34.052187,"long":-118.243425,"type":"BigCompany"},{"category_code":"software","founded_year":2005,"name":"Allegiance","number_of_employees":null,"country":"USA","city":"South Jordan","lat":40.554923,"long":-111.9032625,"type":"BigCompany"},{"category_code":"software","founded_year":2005,"name":"Free Range Data","number_of_employees":null,"country":"USA","city":"Council Bluffs","lat":41.2519014,"long":-95.8126833,"type":"BigCompany"},{"category_code":"software","founded_year":2005,"name":"PG Newsletter","number_of_employees":null,"country":"USA","city":"Las Vegas","lat":36.170206,"long":-115.0479,"type":"BigCompany"},{"category_code":"software","founded_year":2006,"name":"Proclivity Systems","number_of_employees":null,"country":"USA","city":"New York","lat":40.738954,"long":-73.992,"type":"BigCompany"},{"category_code":"software","founded_year":2004,"name":"mPay Gateway","number_of_employees":null,"country":"USA","city":"Minneapolis","lat":44.98983,"long":-93.2743,"type":"BigCompany"},{"category_code":"software","founded_year":2006,"name":"Conviva","number_of_employees":null,"country":"USA","city":"San Mateo","lat":37.552806,"long":-122.2916021,"type":"BigCompany"},{"category_code":"software","founded_year":2007,"name":"BeliefNetworks","number_of_employees":null,"country":"USA","city":"Charleston","lat":32.783932,"long":-79.999591,"type":"BigCompany"},{"category_code":"games_video","founded_year":2004,"name":"Mobitween","number_of_employees":null,"country":"FRA","city":"Reuil-Malmaison","lat":48.8836859,"long":2.181018,"type":"BigCompany"},{"category_code":"software","founded_year":2004,"name":"3Leaf","number_of_employees":null,"country":"USA","city":"Santa Clara","lat":37.381034,"long":-121.971487,"type":"BigCompany"},{"category_code":"software","founded_year":2008,"name":"Minimum Noise","number_of_employees":null,"country":"DNK","city":"Copenhagen","lat":55.6762944,"long":12.5681157,"type":"BigCompany"},{"category_code":"software","founded_year":2005,"name":"RingCube Technologies","number_of_employees":null,"country":"USA","city":"Mountain View","lat":37.3915589,"long":-122.0702643,"type":"BigCompany"},{"category_code":"software","founded_year":2004,"name":"Transera Communications","number_of_employees":null,"country":"USA","city":"Sunnyvale","lat":37.3521697,"long":-122.0622892,"type":"BigCompany"},{"category_code":"software","founded_year":2009,"name":"Wappalyzer","number_of_employees":null,"country":"NLD","city":"Rotterdam","lat":52.3624655,"long":5.2025569,"type":"BigCompany"},{"category_code":"software","founded_year":2006,"name":"Pano Logic","number_of_employees":null,"country":"USA","city":"Menlo Park","lat":37.477037,"long":-122.15164,"type":"BigCompany"},{"category_code":"software","founded_year":2004,"name":"Tendril","number_of_employees":null,"country":"USA","city":"Boulder","lat":40.026422,"long":-105.228284,"type":"BigCompany"},{"category_code":"software","founded_year":2009,"name":"ScaleMP","number_of_employees":null,"country":"USA","city":"Cupertino","lat":37.3229727,"long":-122.0385792,"type":"BigCompany"},{"category_code":"software","founded_year":2005,"name":"F-Origin","number_of_employees":null,"country":"USA","city":"Pleasanton","lat":37.666359,"long":-121.884589,"type":"BigCompany"},{"category_code":"software","founded_year":2008,"name":"Loqu8","number_of_employees":null,"country":"USA","city":"Mountain View","lat":37.424839,"long":-122.100286,"type":"BigCompany"},{"category_code":"software","founded_year":2011,"name":"VisualOn","number_of_employees":null,"country":"USA","city":"Santa Clara","lat":37.270518,"long":-121.955879,"type":"BigCompany"},{"category_code":"games_video","founded_year":2009,"name":"Heyzap","number_of_employees":null,"country":"USA","city":"San Francisco","lat":37.7905538,"long":-122.4041485,"type":"BigCompany"},{"category_code":"software","founded_year":2004,"name":"6th Sense Analytics","number_of_employees":null,"country":"USA","city":"Morrisville","lat":35.864045,"long":-78.820816,"type":"BigCompany"},{"category_code":"software","founded_year":2006,"name":"Open Kernel Labs","number_of_employees":null,"country":"USA","city":"Chicago","lat":41.878984,"long":-87.637,"type":"BigCompany"},{"category_code":"software","founded_year":2006,"name":"Xangati","number_of_employees":null,"country":"USA","city":"San Jose","lat":37.32136,"long":-122.014616,"type":"BigCompany"},{"category_code":"software","founded_year":2005,"name":"RockeTalk","number_of_employees":null,"country":"IND","city":"Puthanathani","lat":32.895605,"long":-117.188893,"type":"BigCompany"},{"category_code":"software","founded_year":2004,"name":"Extreme Planner","number_of_employees":null,"country":"USA","city":"San Diego","lat":32.940318,"long":-117.113212,"type":"BigCompany"},{"category_code":"software","founded_year":2004,"name":"Corefino","number_of_employees":null,"country":"USA","city":"Sunnyvale","lat":37.384206,"long":-121.992805,"type":"BigCompany"},{"category_code":"software","founded_year":2004,"name":"HiWired","number_of_employees":null,"country":"USA","city":"Needham","lat":42.2960173,"long":-71.2128734,"type":"BigCompany"},{"category_code":"games_video","founded_year":2007,"name":"Independent Comedy Network","number_of_employees":null,"country":"USA","city":"Santa Monica","lat":34.0163969,"long":-118.4969939,"type":"BigCompany"},{"category_code":"software","founded_year":2005,"name":"NoiseFree","number_of_employees":null,"country":"USA","city":"Sunnyvale","lat":37.3868616,"long":-121.9917771,"type":"BigCompany"},{"category_code":"software","founded_year":2006,"name":"FastScaleTechnology","number_of_employees":null,"country":"USA","city":"Santa Clara","lat":37.370056,"long":-121.973157,"type":"BigCompany"},{"category_code":"games_video","founded_year":2007,"name":"Comixology","number_of_employees":null,"country":"USA","city":"New York","lat":40.740512,"long":-73.987794,"type":"BigCompany"},{"category_code":"software","founded_year":2005,"name":"SpaceClaim","number_of_employees":null,"country":"USA","city":"Concord","lat":42.462373,"long":-71.387308,"type":"BigCompany"},{"category_code":"software","founded_year":2004,"name":"MiNOWireless","number_of_employees":null,"country":"USA","city":"Santa Clara","lat":37.404044,"long":-121.978956,"type":"BigCompany"},{"category_code":"software","founded_year":2005,"name":"VidSys","number_of_employees":null,"country":"USA","city":"Marlborough","lat":42.338955,"long":-71.595339,"type":"BigCompany"},{"category_code":"software","founded_year":2006,"name":"Cyan","number_of_employees":null,"country":"USA","city":"Petaluma","lat":38.2743225,"long":-122.6670066,"type":"BigCompany"},{"category_code":"software","founded_year":2007,"name":"Gladinet","number_of_employees":null,"country":"USA","city":"Fort Lauderdale","lat":26.208864,"long":-80.140586,"type":"BigCompany"},{"category_code":"software","founded_year":2007,"name":"Space-Time Insight","number_of_employees":null,"country":"USA","city":"San Mateo","lat":37.555773,"long":-122.27977,"type":"BigCompany"},{"category_code":"software","founded_year":2008,"name":"Delphix","number_of_employees":null,"country":"USA","city":"Menlo Park","lat":37.4239496,"long":-122.1011815,"type":"BigCompany"},{"category_code":"software","founded_year":2006,"name":"Sensor Analytics","number_of_employees":null,"country":"USA","city":"San Francisco","lat":37.775196,"long":-122.419204,"type":"BigCompany"},{"category_code":"games_video","founded_year":2008,"name":"MediaNama","number_of_employees":null,"country":"IND","city":"Delhi","lat":28.682051,"long":77.2189325,"type":"BigCompany"},{"category_code":"software","founded_year":2006,"name":"7 Billion People","number_of_employees":null,"country":"USA","city":"Austin","lat":30.408322,"long":-97.748077,"type":"BigCompany"},{"category_code":"software","founded_year":2008,"name":"MediaMelon","number_of_employees":null,"country":"USA","city":"San Francisco","lat":37.792968,"long":-122.40414,"type":"BigCompany"},{"category_code":"games_video","founded_year":2008,"name":"CollegeClickTV","number_of_employees":null,"country":"USA","city":"New York","lat":40.7495594,"long":-73.9916617,"type":"BigCompany"},{"category_code":"games_video","founded_year":2008,"name":"MegaZebra","number_of_employees":null,"country":"DEU","city":"Munich","lat":48.1432705,"long":11.4737468,"type":"BigCompany"},{"category_code":"software","founded_year":2008,"name":"Nubesis","number_of_employees":null,"country":"ESP","city":"Paterna (Valencia)","lat":39.5481824,"long":-0.4614394,"type":"BigCompany"},{"category_code":"software","founded_year":2010,"name":"AppNeta","number_of_employees":null,"country":"USA","city":"SOUTH BOSTON","lat":42.318138,"long":-71.24756,"type":"BigCompany"},{"category_code":"software","founded_year":2007,"name":"ePhiphony Incorporated","number_of_employees":null,"country":"USA","city":"Eagan","lat":44.8067033,"long":-93.2038492,"type":"BigCompany"},{"category_code":"games_video","founded_year":2008,"name":"Crispy Gamer","number_of_employees":null,"country":"USA","city":"New York","lat":40.750597,"long":-73.985273,"type":"BigCompany"},{"category_code":"software","founded_year":2007,"name":"UnboundID","number_of_employees":null,"country":"USA","city":"Austin","lat":30.498112,"long":-97.777273,"type":"BigCompany"},{"category_code":"software","founded_year":2007,"name":"TOMOS Software","number_of_employees":null,"country":"USA","city":"New York","lat":40.7504268,"long":-73.9768083,"type":"BigCompany"},{"category_code":"software","founded_year":2008,"name":"Origramy","number_of_employees":null,"country":"LVA","city":"Riga","lat":56.9691171,"long":24.0653247,"type":"BigCompany"},{"category_code":"software","founded_year":2007,"name":"Evostor","number_of_employees":null,"country":"USA","city":"Campbell","lat":37.232902,"long":-121.964385,"type":"BigCompany"},{"category_code":"software","founded_year":2007,"name":"Rebit","number_of_employees":null,"country":"USA","city":"Longmont","lat":40.146898,"long":-105.1350397,"type":"BigCompany"},{"category_code":"software","founded_year":2006,"name":"myLittleTools","number_of_employees":null,"country":"FRA","city":"Enghien les Bains","lat":48.9705941,"long":2.3069907,"type":"BigCompany"},{"category_code":"games_video","founded_year":2006,"name":"WhereverTV","number_of_employees":null,"country":"USA","city":"Pittsburgh","lat":40.4409,"long":-79.9963,"type":"BigCompany"},{"category_code":"games_video","founded_year":2006,"name":"AnySource Media","number_of_employees":null,"country":"USA","city":"Malvern","lat":40.054547,"long":-75.515376,"type":"BigCompany"},{"category_code":"software","founded_year":2004,"name":"PC Tools","number_of_employees":null,"country":"AUS","city":"North Sydney","lat":-33.85566,"long":151.177331,"type":"BigCompany"},{"category_code":"software","founded_year":2007,"name":"qcue","number_of_employees":null,"country":"USA","city":"Austin","lat":30.396989,"long":-97.735768,"type":"BigCompany"},{"category_code":"games_video","founded_year":2008,"name":"QPoint","number_of_employees":null,"country":"USA","city":"Redwood City","lat":37.48916,"long":-122.209225,"type":"BigCompany"},{"category_code":"games_video","founded_year":2008,"name":"Myfitbrain","number_of_employees":null,"country":"USA","city":"Glenview","lat":42.072715,"long":-87.828089,"type":"BigCompany"},{"category_code":"software","founded_year":2007,"name":"Phurnace Software","number_of_employees":null,"country":"USA","city":"Austin","lat":30.271393,"long":-97.748623,"type":"BigCompany"},{"category_code":"games_video","founded_year":2008,"name":"Moogi","number_of_employees":null,"country":"USA","city":"New York","lat":40.7217861,"long":-74.0094471,"type":"BigCompany"},{"category_code":"games_video","founded_year":2008,"name":"Sloshspot","number_of_employees":null,"country":"USA","city":"San Jose","lat":37.320052,"long":-121.877636,"type":"BigCompany"},{"category_code":"software","founded_year":2007,"name":"GigTide","number_of_employees":null,"country":"USA","city":"San Diego","lat":32.749789,"long":-117.1676501,"type":"BigCompany"},{"category_code":"software","founded_year":2005,"name":"Ratio Interactive","number_of_employees":null,"country":"IND","city":"Seattle","lat":47.5998944,"long":-122.3328866,"type":"BigCompany"},{"category_code":"software","founded_year":2005,"name":"Clickfree","number_of_employees":null,"country":"CAN","city":"Richmond Hill","lat":43.8561433,"long":-79.3890223,"type":"BigCompany"},{"category_code":"software","founded_year":2008,"name":"Bimserver","number_of_employees":null,"country":"NLD","city":"Breda","lat":52.0782886,"long":4.313685,"type":"BigCompany"},{"category_code":"software","founded_year":2008,"name":"SiS Survey","number_of_employees":null,"country":"ARG","city":"Buenos Aires","lat":-34.6218462,"long":-58.4236842,"type":"BigCompany"},{"category_code":"software","founded_year":2007,"name":"VKernel Corporation","number_of_employees":null,"country":"USA","city":"Boston","lat":42.3497366,"long":-71.0491901,"type":"BigCompany"},{"category_code":"games_video","founded_year":2008,"name":"Playdom","number_of_employees":null,"country":"USA","city":"Palo Alto","lat":37.393536,"long":-122.076747,"type":"BigCompany"},{"category_code":"software","founded_year":2005,"name":"First Coverage","number_of_employees":null,"country":"CAN","city":"Toronto, ON","lat":43.6878093,"long":-79.3958388,"type":"BigCompany"},{"category_code":"software","founded_year":2005,"name":"Firm58","number_of_employees":null,"country":"USA","city":"Chicago","lat":41.879641,"long":-87.6425816,"type":"BigCompany"},{"category_code":"games_video","founded_year":2010,"name":"Flixxy","number_of_employees":null,"country":"USA","city":"Clearwater","lat":27.972364,"long":-82.800333,"type":"BigCompany"},{"category_code":"software","founded_year":2006,"name":"Marketcetera","number_of_employees":null,"country":"USA","city":"San Francisco","lat":37.788864,"long":-122.4008487,"type":"BigCompany"},{"category_code":"games_video","founded_year":2004,"name":"Lightning Gaming","number_of_employees":null,"country":"USA","city":"Boothwyn","lat":39.8728373,"long":-75.4784988,"type":"BigCompany"},{"category_code":"software","founded_year":2006,"name":"Social Solutions","number_of_employees":null,"country":"USA","city":"Baltimore","lat":39.281734,"long":-76.581864,"type":"BigCompany"},{"category_code":"software","founded_year":2007,"name":"Carp Data Service","number_of_employees":null,"country":"USA","city":"Sevierville","lat":35.868268,"long":-83.560763,"type":"BigCompany"},{"category_code":"software","founded_year":2005,"name":"Syntensia","number_of_employees":null,"country":"SWE","city":"Stockholm","lat":59.6121259,"long":17.8947672,"type":"BigCompany"},{"category_code":"software","founded_year":2004,"name":"U-Play Studios","number_of_employees":null,"country":"ESP","city":"Barcelona","lat":41.4063346,"long":2.1920231,"type":"BigCompany"},{"category_code":"software","founded_year":2007,"name":"Noomeo","number_of_employees":null,"country":"FRA","city":"Lab\u00e8ge","lat":47.5974286,"long":1.3168395,"type":"BigCompany"},{"category_code":"software","founded_year":2005,"name":"My Ad Box","number_of_employees":null,"country":"USA","city":"Baltimore","lat":39.281734,"long":-76.581864,"type":"BigCompany"},{"category_code":"software","founded_year":2006,"name":"uControl","number_of_employees":null,"country":"USA","city":"Austin","lat":30.3542873,"long":-97.7976572,"type":"BigCompany"},{"category_code":"software","founded_year":2008,"name":"SocialNet Circle","number_of_employees":null,"country":"GBR","city":"Bracknell","lat":51.417026,"long":-0.746479,"type":"BigCompany"},{"category_code":"software","founded_year":2004,"name":"Virtual Heroes","number_of_employees":null,"country":"USA","city":"Research Triangle Park","lat":35.912388,"long":-78.8665733,"type":"BigCompany"},{"category_code":"software","founded_year":2005,"name":"Vyatta","number_of_employees":null,"country":"USA","city":"Belmont","lat":37.524422,"long":-122.265869,"type":"BigCompany"},{"category_code":"games_video","founded_year":2008,"name":"Sticher","number_of_employees":null,"country":"USA","city":"San Francisco","lat":37.8093381,"long":-122.4166061,"type":"BigCompany"},{"category_code":"games_video","founded_year":2005,"name":"Forterra Systems","number_of_employees":null,"country":"USA","city":"San Mateo","lat":37.561576,"long":-122.284173,"type":"BigCompany"},{"category_code":"software","founded_year":2006,"name":"FastSoft","number_of_employees":null,"country":"USA","city":"Pasadena","lat":34.142973,"long":-118.140553,"type":"BigCompany"},{"category_code":"software","founded_year":2008,"name":"benivolent soft tech","number_of_employees":null,"country":"IND","city":"Chennai","lat":13.060416,"long":80.249634,"type":"BigCompany"},{"category_code":"software","founded_year":2004,"name":"INRIX","number_of_employees":null,"country":"USA","city":"Kirkland","lat":47.6434969,"long":-122.2033998,"type":"BigCompany"},{"category_code":"software","founded_year":2004,"name":"BPL Global","number_of_employees":null,"country":"USA","city":"Sewickley","lat":40.612461,"long":-80.098299,"type":"BigCompany"},{"category_code":"software","founded_year":2006,"name":"Accellos","number_of_employees":null,"country":"USA","city":"Colorado Springs","lat":38.833716,"long":-104.826256,"type":"BigCompany"},{"category_code":"software","founded_year":2008,"name":"VendAsta","number_of_employees":null,"country":"CAN","city":"Saskatoon","lat":52.143886,"long":-106.6634565,"type":"BigCompany"},{"category_code":"software","founded_year":2005,"name":"Joomla","number_of_employees":null,"country":"CAN","city":"Ontario","lat":45.3548831,"long":-75.9163919,"type":"BigCompany"},{"category_code":"software","founded_year":2009,"name":"Easter Egg","number_of_employees":null,"country":"ITA","city":"Milano","lat":45.4649519,"long":9.2087727,"type":"BigCompany"},{"category_code":"software","founded_year":2006,"name":"Internet Project Systems","number_of_employees":null,"country":"USA","city":"dallas","lat":39.287281,"long":-76.611911,"type":"BigCompany"},{"category_code":"software","founded_year":2004,"name":"Aspera","number_of_employees":null,"country":"USA","city":"Emeryville","lat":37.8416738,"long":-122.289666,"type":"BigCompany"},{"category_code":"games_video","founded_year":2008,"name":"MechaWorks","number_of_employees":null,"country":"USA","city":"Sunnyvale","lat":37.383444,"long":-122.009405,"type":"BigCompany"},{"category_code":"software","founded_year":2004,"name":"Interprise Software Solutions","number_of_employees":null,"country":"USA","city":"North Mankato","lat":44.1835656,"long":-94.0538511,"type":"BigCompany"},{"category_code":"software","founded_year":2004,"name":"Incuity Software","number_of_employees":null,"country":"USA","city":"Mission Viejo","lat":33.6640874,"long":-117.6325191,"type":"BigCompany"},{"category_code":"software","founded_year":2004,"name":"Axon Solutions","number_of_employees":null,"country":"USA","city":"Jersey City","lat":40.715887,"long":-74.033251,"type":"BigCompany"},{"category_code":"software","founded_year":2009,"name":"Oriact","number_of_employees":null,"country":"CHE","city":"K\u00c3\u00bcssnacht","lat":47.0882193,"long":8.4371634,"type":"BigCompany"}]